City,Lat,Lng,Max Temp,Humidity,Cloudiness,Wind Speed,Country,Date
Manokwari,-0.866667,134.083333,85.06,64.0,72.0,5.1,ID,2020-09-16 03:34:46
New Norfolk,-42.78075,147.05938700000002,64.4,34.0,90.0,18.34,AU,2020-09-16 03:34:46
Avarua,-21.207777800000002,-159.775,75.2,73.0,59.0,14.99,CK,2020-09-16 03:34:46
Chokurdakh,70.633333,147.916667,41.47,66.0,98.0,7.61,RU,2020-09-16 03:34:46
Hilo,19.729722199999998,-155.09,80.6,65.0,20.0,6.93,US,2020-09-16 03:34:47
Kavieng,-2.5666667000000003,150.8,84.63,74.0,77.0,15.7,PG,2020-09-16 03:34:47
Sao Gabriel Da Cachoeira,-0.13333299999999998,-67.083333,73.62,98.0,99.0,1.99,BR,2020-09-16 03:34:47
Mar Del Plata,-38.002278000000004,-57.557539,50.0,81.0,11.0,6.93,AR,2020-09-16 03:34:47
Konispol,39.658888899999994,20.181388899999998,75.99,72.0,0.0,7.65,AL,2020-09-16 03:34:47
Ushuaia,-54.8,-68.3,33.8,74.0,40.0,3.36,AR,2020-09-16 03:31:53
Deputatskiy,69.3,139.9,43.57,69.0,94.0,2.42,RU,2020-09-16 03:34:48
Usinsk,65.950714,57.468469999999996,46.06,89.0,64.0,7.52,RU,2020-09-16 03:34:48
Saleaula,-13.433333300000001,-172.33333330000002,,,,,WS,
Poso,-1.3959,120.7524,85.98,55.0,96.0,2.84,ID,2020-09-16 03:34:48
Ribeira Grande,38.516667,-28.7,65.75,62.0,87.0,14.16,PT,2020-09-16 03:34:48
Havre,48.55,-109.68333329999999,64.4,93.0,87.0,4.7,US,2020-09-16 03:34:49
Rikitea,-23.120277800000004,-134.9691667,74.03,72.0,0.0,1.59,PF,2020-09-16 03:34:49
Civita Castellana,42.283333,12.416667,68.0,83.0,98.0,1.01,IT,2020-09-16 03:34:49
Hobart,-42.883209,147.331665,64.4,34.0,90.0,18.34,AU,2020-09-16 03:32:20
Albany,-35.003101,117.86595200000001,48.99,70.0,6.0,3.51,AU,2020-09-16 03:30:02
Calvinia,-31.470688,19.776007999999997,39.36,75.0,0.0,4.27,ZA,2020-09-16 03:34:49
Kalakamati,-20.6333333,27.3,67.12,31.0,3.0,11.9,BW,2020-09-16 03:34:50
Ilulissat,69.2166667,-51.1,44.6,48.0,100.0,16.11,GL,2020-09-16 03:34:52
Cape Town,-33.925839,18.423218,53.01,87.0,75.0,11.41,ZA,2020-09-16 03:31:55
Nizhneyansk,71.43333299999999,136.066667,,,,,RU,
Taolanaro,-25.033333300000002,47.0,,,,,MG,
Iqaluit,63.733332999999995,-68.5,33.8,90.0,40.0,8.05,CA,2020-09-16 03:34:52
Mataura,-23.3666667,-149.4666667,51.01,89.0,100.0,18.99,PF,2020-09-16 03:34:52
Port Alfred,-33.590571999999995,26.891037,56.41,87.0,39.0,6.67,ZA,2020-09-16 03:34:53
Nacozari,30.4,-109.65,89.01,72.0,13.0,8.01,MX,2020-09-16 03:34:53
Pacific Grove,36.6177778,-121.91555559999999,62.01,92.0,19.0,1.01,US,2020-09-16 03:34:53
Buala,-8.1333333,159.58333330000002,84.92,73.0,54.0,10.71,SB,2020-09-16 03:34:53
Tiksi,71.68722199999999,128.869444,45.61,68.0,25.0,2.48,RU,2020-09-16 03:34:53
Busselton,-33.652489,115.345497,59.0,75.0,38.0,5.01,AU,2020-09-16 03:31:33
Punta Arenas,-53.15,-70.916667,30.2,86.0,0.0,8.05,CL,2020-09-16 03:34:54
Upernavik,72.7833333,-56.1666667,26.76,87.0,16.0,11.77,GL,2020-09-16 03:34:54
Cidreira,-30.183333,-50.2,59.22,91.0,100.0,14.67,BR,2020-09-16 03:34:54
Bengkulu,-3.8,102.266667,78.66,81.0,99.0,3.74,ID,2020-09-16 03:34:54
Amderma,69.7576,61.6655,,,,,RU,
Wittlich,49.983333,6.883333,69.8,67.0,1.0,1.19,DE,2020-09-16 03:34:55
Atuona,-9.8,-139.0333333,78.39,75.0,1.0,17.83,PF,2020-09-16 03:34:55
Touros,-5.2,-35.466667,73.4,94.0,40.0,4.7,BR,2020-09-16 03:34:55
Balakhninskiy,58.01055600000001,114.276944,54.16,61.0,87.0,4.99,RU,2020-09-16 03:34:55
Banepa,27.633333299999997,85.5166667,78.8,74.0,75.0,2.46,NP,2020-09-16 03:34:56
Grenaa,56.41285,10.895649,53.6,93.0,90.0,4.7,DK,2020-09-16 03:34:56
Hambantota,6.116666700000001,81.1166667,82.4,94.0,40.0,11.41,LK,2020-09-16 03:34:56
Attawapiskat,52.916667000000004,-82.43333299999999,,,,,CA,
Viransehir,37.235278,39.763056,78.44,18.0,0.0,4.05,TR,2020-09-16 03:34:56
Port Hardy,50.716667,-127.5,64.4,82.0,90.0,3.36,CA,2020-09-16 03:34:57
Kapaa,22.0783333,-159.3219444,84.2,62.0,40.0,8.05,US,2020-09-16 03:34:57
Castro,-24.783333,-50.0,52.11,96.0,73.0,5.37,CL,2020-09-16 03:34:57
Kodiak,57.79,-152.40722219999998,55.54,91.0,57.0,4.65,US,2020-09-16 03:34:57
Acajutla,13.592777800000002,-89.8275,73.0,98.0,100.0,3.89,SV,2020-09-16 03:31:10
Cherskiy,68.75,161.3,42.85,80.0,100.0,2.3,RU,2020-09-16 03:34:58
Hermanus,-34.418696000000004,19.234464000000003,39.99,95.0,8.0,10.27,ZA,2020-09-16 03:34:58
Manbij,36.5266667,37.95638889999999,62.6,63.0,0.0,4.97,SY,2020-09-16 03:34:58
Butaritari,3.0833333,172.81666669999998,83.64,74.0,57.0,16.98,KI,2020-09-16 03:34:58
Ponta Do Sol,17.2,-25.1,73.4,64.0,40.0,5.82,CV,2020-09-16 03:34:58
Nikolskoye,47.7624,46.4067,46.4,93.0,96.0,4.47,RU,2020-09-16 03:34:59
Avera,-22.45,-151.35,71.6,78.0,1.0,6.93,PF,2020-09-16 03:34:59
San-Pedro,4.748508,-6.636301,73.76,91.0,90.0,6.93,CI,2020-09-16 03:34:59
Geraldton,-28.778971000000002,114.614594,69.8,52.0,64.0,25.28,AU,2020-09-16 03:34:59
Bluff,-46.6,168.333333,51.01,89.0,99.0,18.99,NZ,2020-09-16 03:34:59
Kavaratti,10.566667,72.616667,82.4,83.0,40.0,9.17,IN,2020-09-16 03:35:00
Bethel,60.792222200000005,-161.7558333,50.0,93.0,1.0,3.76,US,2020-09-16 03:35:00
Caravelas,-17.75,-39.25,70.77,94.0,0.0,4.65,BR,2020-09-16 03:35:00
Tasiilaq,65.6,-37.6333333,34.48,93.0,100.0,30.09,GL,2020-09-16 03:35:00
Talnakh,69.4865,88.3972,59.0,58.0,75.0,13.42,RU,2020-09-16 03:35:01
Puerto Ayora,-0.75,-90.3166667,66.0,94.0,71.0,5.99,EC,2020-09-16 03:35:01
Grand-Santi,4.25,-54.3833333,73.11,97.0,98.0,1.72,GF,2020-09-16 03:35:01
Vyartsilya,62.17645,30.69296,43.02,89.0,100.0,4.14,RU,2020-09-16 03:35:01
Tullamore,53.273888899999996,-7.488888900000001,59.0,95.0,32.0,0.83,IE,2020-09-16 03:35:02
Sao Filipe,14.9,-24.5166667,79.14,83.0,90.0,7.87,CV,2020-09-16 03:35:02
Jamestown,-15.933333300000001,-5.7166667,54.0,76.0,1.0,8.05,SH,2020-09-16 03:35:02
Carnarvon,-24.88073,113.659401,73.4,64.0,0.0,25.28,AU,2020-09-16 03:35:02
Kdyne,49.392123,13.039451,55.99,100.0,1.0,1.12,CZ,2020-09-16 03:35:03
Toliary,-23.35,43.6666667,,,,,MG,
Benguela,-12.578333,13.407222,68.31,87.0,15.0,3.58,AO,2020-09-16 03:35:03
Zhigansk,66.769722,123.37111100000001,50.72,59.0,0.0,7.92,RU,2020-09-16 03:35:03
Leeton,-34.551048,146.404831,80.01,26.0,58.0,8.05,AU,2020-09-16 03:35:03
Blankenberge,51.316666999999995,3.1333330000000004,61.0,100.0,40.0,2.24,BE,2020-09-16 03:35:04
Champerico,14.3,-91.916667,66.99,98.0,99.0,4.05,GT,2020-09-16 03:35:04
Kalianget,-7.05,113.933333,84.7,54.0,79.0,9.33,ID,2020-09-16 03:35:04
Arraial Do Cabo,-22.966667,-42.016667,70.48,90.0,73.0,13.0,BR,2020-09-16 03:35:04
Hofn,64.25,-15.216667000000001,47.71,59.0,90.0,4.21,IS,2020-09-16 03:35:04
Coquimbo,-29.953333,-71.343611,53.6,76.0,90.0,2.24,CL,2020-09-16 03:35:05
Narsaq,77.3025,-68.8425,44.6,75.0,100.0,3.36,GL,2020-09-16 03:35:05
Bowen,-20.01367,148.247543,77.0,69.0,75.0,18.34,AU,2020-09-16 03:35:05
Saint-Augustin,51.233333,-58.65,43.9,62.0,0.0,9.89,CA,2020-09-16 03:35:05
Bandarbeyla,9.483333300000002,50.8166667,82.17,63.0,34.0,25.46,SO,2020-09-16 03:35:06
Mys Shmidta,68.93333299999999,-179.5,,,,,RU,
Aguimes,27.905052,-15.445395000000001,75.2,69.0,20.0,23.04,ES,2020-09-16 03:35:06
Barrow,71.2905556,-156.7886111,35.6,87.0,90.0,24.16,US,2020-09-16 03:35:06
Pangody,65.916667,74.833333,53.62,70.0,5.0,13.27,RU,2020-09-16 03:35:06
Saint George,32.381666700000004,-64.6780556,89.6,10.0,1.0,8.05,BM,2020-09-16 03:32:14
Acapulco,16.85,-99.916667,79.84,77.0,78.0,3.89,MX,2020-09-16 03:35:07
Kupang,-10.166667,123.58333300000001,93.2,34.0,20.0,17.22,ID,2020-09-16 03:35:07
Vaini,-21.2,-175.2,75.2,73.0,40.0,11.41,TO,2020-09-16 03:35:07
Port Elizabeth,13.016666699999998,-61.2333333,55.4,93.0,90.0,5.82,ZA,2020-09-16 03:35:07
Belushya Guba,71.539238,52.332117,,,,,RU,
Esperance,-33.86013,121.88259099999999,57.2,93.0,90.0,18.34,AU,2020-09-16 03:35:08
Yellowknife,62.45,-114.35,33.01,81.0,20.0,3.36,CA,2020-09-16 03:35:08
Waingapu,-9.6567,120.2641,86.58,50.0,99.0,15.43,ID,2020-09-16 03:35:08
Dingle,52.1408333,-10.2688889,76.14,95.0,100.0,5.73,IE,2020-09-16 03:35:08
Illoqqortoormiut,70.4833333,-21.966666699999998,,,,,GL,
San Lazaro,-22.166667,-57.916667000000004,78.17,97.0,100.0,4.18,PY,2020-09-16 03:35:09
Lebu,-37.616667,-73.65,49.91,95.0,90.0,2.26,CL,2020-09-16 03:35:09
Santa Cruz,-6.216667,-36.016667,66.2,77.0,18.0,5.82,CR,2020-09-16 03:35:09
Norman Wells,65.283333,-126.85,41.0,80.0,40.0,4.7,CA,2020-09-16 03:35:09
Kedougou,12.483333300000002,-11.95,74.75,93.0,0.0,6.13,SN,2020-09-16 03:35:09
Mahebourg,-20.4080556,57.7,69.8,60.0,75.0,11.41,MU,2020-09-16 03:35:10
Kerikeri,-35.216667,173.966667,64.99,44.0,4.0,8.99,NZ,2020-09-16 03:33:29
Rawannawi,2.05,173.2666667,,,,,KI,
Thompson,55.75,-97.866667,35.6,93.0,90.0,17.22,CA,2020-09-16 03:35:10
Reconquista,-29.15,-59.65,50.56,91.0,30.0,2.89,AR,2020-09-16 03:35:10
Srednekolymsk,67.45,153.683333,42.85,82.0,99.0,7.65,RU,2020-09-16 03:35:11
Tuktoyaktuk,69.45,-133.066667,33.8,86.0,40.0,9.17,CA,2020-09-16 03:35:11
Mount Gambier,-37.831799,140.77919,68.0,56.0,75.0,8.05,AU,2020-09-16 03:35:11
Umzimvubu,-31.622911,29.544772,,,,,ZA,
Broome,-17.955379,122.23921999999999,51.8,57.0,1.0,6.93,AU,2020-09-16 03:35:11
Kewanee,41.2455556,-89.9247222,66.0,83.0,0.0,1.01,US,2020-09-16 03:35:12
Laurel,14.055419,120.919316,54.0,100.0,1.0,2.77,US,2020-09-16 03:35:12
Beloha,-25.1666667,45.05,66.58,91.0,28.0,4.45,MG,2020-09-16 03:35:12
Allapalli,19.416667,80.06666700000001,87.42,72.0,30.0,2.35,IN,2020-09-16 03:35:12
Palmas,-26.5,-52.0,75.2,50.0,13.0,3.38,BR,2020-09-16 03:35:12
Flekkefjord,58.283333,6.683333,57.0,95.0,94.0,12.3,NO,2020-09-16 03:35:13
Mogadishu,2.0666667000000003,45.3666667,77.95,81.0,57.0,13.06,SO,2020-09-16 03:35:13
Najran,17.466667,44.1,75.2,25.0,67.0,4.7,SA,2020-09-16 03:35:03
East London,-33.011051,27.910049,51.8,93.0,93.0,3.36,ZA,2020-09-16 03:35:13
Gunjur,13.1816667,-16.7583333,73.4,100.0,75.0,7.78,GM,2020-09-16 03:35:13
Alihe,50.566666999999995,123.71666699999999,56.35,86.0,100.0,11.97,CN,2020-09-16 03:35:14
Yumen,39.833333,97.733333,72.21,17.0,100.0,20.04,CN,2020-09-16 03:35:14
Kahului,20.894722199999997,-156.47,87.8,48.0,40.0,19.46,US,2020-09-16 03:35:14
Steamboat Springs,40.485,-106.8311111,59.0,22.0,1.0,4.7,US,2020-09-16 03:35:14
Teixoso,40.314479999999996,-7.457594,63.0,88.0,1.0,1.61,PT,2020-09-16 03:35:14
Bagado,5.411637000000001,-76.41520200000001,73.9,92.0,100.0,1.9,CO,2020-09-16 03:35:15
Anloga,5.8,0.9,73.4,94.0,40.0,5.82,GH,2020-09-16 03:35:15
Luderitz,-26.648055600000003,15.159444400000002,51.22,70.0,0.0,10.85,NA,2020-09-16 03:35:15
Colborne,44.016667,-77.883333,62.6,67.0,1.0,6.93,CA,2020-09-16 03:31:11
Higuey,18.6166667,-68.7,,,,,DO,
Stokmarknes,68.561944,14.908610999999999,44.6,81.0,40.0,9.17,NO,2020-09-16 03:35:16
Panikian,7.010705000000001,126.02418300000001,80.6,94.0,90.0,6.93,PH,2020-09-16 03:35:16
Sakakah,29.969742,40.206414,82.4,14.0,0.0,5.82,SA,2020-09-16 03:35:16
Pevek,69.70083299999999,170.313333,43.32,77.0,96.0,5.53,RU,2020-09-16 03:35:16
Hithadhoo,-0.6,73.08333329999999,81.81,71.0,100.0,9.1,MV,2020-09-16 03:35:16
Saint-Philippe,-21.35,55.7666667,69.01,56.0,90.0,9.17,RE,2020-09-16 03:35:17
Seymchan,62.88333299999999,152.433333,52.02,49.0,67.0,8.01,RU,2020-09-16 03:35:17
Bathsheba,13.2166667,-59.5166667,82.4,78.0,20.0,11.41,BB,2020-09-16 03:35:17
Kasongo-Lunda,-6.466667,16.816667000000002,72.54,82.0,68.0,1.41,CD,2020-09-16 03:35:17
Muisne,0.6080555999999999,-80.0441667,74.62,86.0,100.0,7.76,EC,2020-09-16 03:35:18
Nizhniy Kuranakh,58.835278,125.486944,54.16,62.0,99.0,5.44,RU,2020-09-16 03:35:18
Marsa Matruh,31.35,27.233333299999998,75.2,78.0,40.0,9.26,EG,2020-09-16 03:35:18
Vaitape,-16.5166667,-151.75,78.82,77.0,0.0,15.05,PF,2020-09-16 03:35:18
Picayune,30.525277799999998,-89.67944440000001,79.0,86.0,100.0,12.5,US,2020-09-16 03:35:18
Beba,28.925,30.983333299999998,78.8,88.0,20.0,2.24,EG,2020-09-16 03:35:19
Severo-Kurilsk,50.678889,156.125,56.62,59.0,50.0,12.48,RU,2020-09-16 03:35:19
Sentyabrskiy,45.266667,148.5,,,,,RU,
Ahipara,-35.166667,173.166667,60.39,71.0,0.0,9.98,NZ,2020-09-16 03:35:19
Strezhevoy,60.7333,77.5889,53.6,66.0,0.0,13.42,RU,2020-09-16 03:35:19
Saskylakh,71.916667,114.08333300000001,52.43,67.0,100.0,5.7,RU,2020-09-16 03:35:20
Camargo,-20.65,-65.2166667,71.15,67.0,4.0,5.77,MX,2020-09-16 03:35:20
Tabiauea,0.9,173.0333333,,,,,KI,
Vao,-22.6666667,167.4833333,67.8,75.0,22.0,21.63,NC,2020-09-16 03:35:20
Chaohu,31.6,117.86666699999999,78.8,74.0,75.0,4.47,CN,2020-09-16 03:35:20
Naryan-Mar,67.641793,53.043071,45.66,80.0,92.0,13.31,RU,2020-09-16 03:35:21
Candolim,15.516667000000002,73.75,77.0,100.0,75.0,3.36,IN,2020-09-16 03:35:21
Inongo,-1.95,18.266667,68.7,97.0,95.0,2.73,CD,2020-09-16 03:35:21
Contamana,-7.3333333,-75.0166667,70.86,96.0,85.0,1.61,PE,2020-09-16 03:35:21
Vanimo,-2.6666667,141.2666667,86.81,61.0,54.0,9.28,PG,2020-09-16 03:35:21
Sitarganj,28.933333,79.7,82.4,88.0,75.0,2.24,IN,2020-09-16 03:35:22
Saint-Pierre,14.733333300000002,-61.1666667,69.01,56.0,90.0,9.17,RE,2020-09-16 03:35:22
Asau,46.433333000000005,26.4,54.0,93.0,0.0,2.15,TV,2020-09-16 03:35:22
Along,28.166666999999997,94.766667,74.05,90.0,100.0,0.74,IN,2020-09-16 03:35:22
Nanchang,28.55,115.933333,74.52,92.0,100.0,6.13,CN,2020-09-16 03:35:22
Laytown,53.6819444,-6.2391667,59.0,93.0,40.0,5.82,IE,2020-09-16 03:35:23
Severnyy,50.677040000000005,36.553243,57.2,93.0,75.0,6.71,RU,2020-09-16 03:35:23
Opuwo,-18.0666667,13.85,49.51,46.0,0.0,1.19,NA,2020-09-16 03:35:23
Tsihombe,-25.3,45.4833333,,,,,MG,
Nabire,-3.3666669999999996,135.48333300000002,86.41,59.0,59.0,5.64,ID,2020-09-16 03:33:26
Kendari,-3.945,122.49888899999999,86.67,50.0,35.0,5.79,ID,2020-09-16 03:35:24
Saldanha,-33.01167,17.944202,42.8,87.0,1.0,2.24,ZA,2020-09-16 03:35:24
Qeshm,26.9581,56.2719,80.6,38.0,0.0,4.7,IR,2020-09-16 03:35:24
Nyurba,63.284167000000004,118.331944,60.08,52.0,0.0,3.11,RU,2020-09-16 03:35:24
Clarence Town,23.1,-74.9833333,81.0,47.0,20.0,11.41,BS,2020-09-16 03:35:24
Dzhebariki-Khaya,62.216667,135.8,50.72,58.0,92.0,2.84,RU,2020-09-16 03:35:25
Pacifica,37.6138889,-122.48583329999998,64.4,82.0,75.0,12.75,US,2020-09-16 03:35:25
Aktau,43.65,51.2,60.8,82.0,40.0,2.24,KZ,2020-09-16 03:35:25
Provideniya,64.383333,-173.3,50.0,81.0,90.0,4.47,RU,2020-09-16 03:35:25
Georgetown,43.65,-79.93333299999999,86.0,70.0,20.0,2.24,SH,2020-09-16 03:35:26
Itoman,26.124722,127.669444,89.6,75.0,75.0,12.75,JP,2020-09-16 03:35:26
Camana,-16.6227778,-72.7111111,60.57,82.0,93.0,5.17,PE,2020-09-16 03:35:26
Half Moon Bay,37.4636111,-122.4275,66.0,93.0,90.0,8.05,US,2020-09-16 03:35:26
Namibe,-15.196110999999998,12.152222,58.89,83.0,4.0,4.32,AO,2020-09-16 03:35:26
Lichinga,-13.312777800000003,35.24055560000001,62.6,67.0,11.0,12.75,MZ,2020-09-16 03:35:27
Nieuwpoort,12.05,-68.8166667,61.0,100.0,79.0,3.36,AN,2020-09-16 03:35:27
Cordoba,-31.413496000000002,-64.18105200000001,55.0,57.0,0.0,5.82,AR,2020-09-16 03:35:27
Hasaki,35.733333,140.833333,84.0,74.0,75.0,8.05,JP,2020-09-16 03:35:27
Gat,24.964722199999997,10.1727778,78.01,76.0,0.0,3.33,LY,2020-09-16 03:31:04
Merauke,-8.466667,140.333333,83.41,69.0,47.0,19.73,ID,2020-09-16 03:35:28
Ust-Kamchatsk,56.236667000000004,162.518889,,,,,RU,
Japura,-1.395833,-69.42222199999999,89.73,57.0,92.0,4.23,BR,2020-09-16 03:35:28
Hanzhong,33.072778,107.03027800000001,63.39,90.0,100.0,3.29,CN,2020-09-16 03:35:28
Dikson,73.50694399999999,80.546389,42.3,95.0,99.0,16.44,RU,2020-09-16 03:35:28
Bur Gabo,-1.2166667,41.85,,,,,SO,
Samarai,-10.616666699999998,150.66666669999998,79.72,86.0,98.0,12.3,PG,2020-09-16 03:35:29
Gewane,10.166389,40.645278000000005,80.85,54.0,49.0,12.59,ET,2020-09-16 03:35:29
Coihaique,-45.566666999999995,-72.06666700000001,33.8,74.0,20.0,3.6,CL,2020-09-16 03:35:29
Nelson Bay,-32.720428000000005,152.143982,80.01,47.0,20.0,11.41,AU,2020-09-16 03:35:29
Victoria,-32.619888,-60.153907,90.0,85.0,41.0,11.01,SC,2020-09-16 03:32:47
Brownsville,35.593888899999996,-89.26222220000001,78.8,88.0,1.0,6.93,US,2020-09-16 03:35:30
Elat,29.558049,34.948212,82.4,58.0,2.0,5.82,IL,2020-09-16 03:35:30
San Carlos De Bariloche,-41.140293,-71.301369,41.0,75.0,91.0,8.05,AR,2020-09-16 03:35:30
Saveh,35.0213,50.3566,70.34,34.0,0.0,2.44,IR,2020-09-16 03:35:30
Bredasdorp,-34.532154,20.040308,46.4,87.0,10.0,5.82,ZA,2020-09-16 03:35:31
Cabo San Lucas,22.883333,-109.9,87.01,75.0,61.0,1.99,MX,2020-09-16 03:35:31
Shu,43.598333000000004,73.76138900000001,77.07,19.0,0.0,8.14,KZ,2020-09-16 03:35:31
Mackenzie,55.33,-123.09,46.4,81.0,1.0,1.21,CA,2020-09-16 03:35:31
Rensvik,63.1,7.816667,46.4,81.0,100.0,20.8,NO,2020-09-16 03:35:31
Maragogi,-9.016667,-35.216667,73.54,87.0,15.0,11.52,BR,2020-09-16 03:31:03
Mount Isa,-20.725229000000002,139.497269,86.0,16.0,0.0,9.17,AU,2020-09-16 03:35:32
Turukhansk,65.81666700000001,87.983333,61.23,57.0,30.0,13.56,RU,2020-09-16 03:35:32
Ariquemes,-9.933333,-63.066667,77.27,27.0,1.0,2.73,BR,2020-09-16 03:31:34
Saint-Joseph,14.666666699999999,-61.033333299999995,69.01,56.0,90.0,9.17,RE,2020-09-16 03:35:32
Miramar,10.092499,-84.729783,84.2,83.0,1.0,5.82,MX,2020-09-16 03:35:22
Port Lincoln,-34.72625,135.87442,68.99,49.0,99.0,4.16,AU,2020-09-16 03:35:33
Islamkot,24.6997,70.17699999999999,89.6,62.0,19.0,10.0,PK,2020-09-16 03:35:33
Dawei,14.083333300000001,98.2,82.92,79.0,96.0,4.29,MM,2020-09-16 03:35:33
Pisco,-13.7,-76.2166667,61.0,87.0,97.0,10.29,PE,2020-09-16 03:35:33
Hobyo,5.3513889,48.525555600000004,78.73,78.0,5.0,23.98,SO,2020-09-16 03:35:33
Grand River South East,-20.2861111,57.775833299999995,,,,,MU,
Chuy,-33.6833333,-53.45,54.12,84.0,100.0,12.57,UY,2020-09-16 03:35:34
Katsuura,35.133333,140.3,84.0,69.0,75.0,3.36,JP,2020-09-16 03:35:34
Raudeberg,61.98055600000001,5.133611,48.0,86.0,95.0,21.68,NO,2020-09-16 03:35:34
Nantucket,41.283333299999995,-70.1,50.0,81.0,1.0,6.26,US,2020-09-16 03:31:57
La Crosse,43.8013889,-91.2394444,69.8,73.0,1.0,8.05,US,2020-09-16 03:35:35
Karkaralinsk,49.405833,75.47416700000001,,,,,KZ,
Kralendijk,12.15,-68.2666667,84.2,79.0,25.0,11.41,AN,2020-09-16 03:35:35
Stawell,-37.05632,142.78088400000001,63.95,66.0,100.0,11.65,AU,2020-09-16 03:35:35
Simoes,-7.6,-40.816666999999995,72.63,68.0,4.0,17.45,BR,2020-09-16 03:35:35
Axim,4.8683333,-2.2413889,75.0,89.0,100.0,10.92,GH,2020-09-16 03:35:36
Rio Gallegos,-51.622613,-69.218127,30.2,80.0,0.0,9.17,AR,2020-09-16 03:33:11
Faya,17.9166667,19.1166667,66.2,59.0,54.0,3.53,TD,2020-09-16 03:35:36
Mokhsogollokh,61.468056000000004,128.920278,56.53,49.0,4.0,4.16,RU,2020-09-16 03:35:36
Mukhen,48.1,136.1,71.96,60.0,99.0,3.83,RU,2020-09-16 03:35:36
San Jeronimo,6.443442,-75.72814699999999,47.34,74.0,100.0,1.03,MX,2020-09-16 03:35:37
Itubera,-13.733332999999998,-39.15,68.86,95.0,32.0,3.56,BR,2020-09-16 03:35:37
Qaanaaq,77.4894444,-69.3322222,19.44,77.0,0.0,7.58,GL,2020-09-16 03:35:37
Adana,37.001667,35.328889000000004,77.0,100.0,75.0,2.24,TR,2020-09-16 03:32:44
Wiang Sa,8.635849,99.36659499999999,87.01,79.0,55.0,5.61,TH,2020-09-16 03:35:37
Khatanga,71.966667,102.5,55.29,68.0,100.0,6.87,RU,2020-09-16 03:35:37
Vodnyy,63.50464,53.409466,45.64,94.0,100.0,6.62,RU,2020-09-16 03:35:38
Huarmey,-10.066666699999999,-78.16666670000001,60.53,84.0,89.0,8.3,PE,2020-09-16 03:35:38
Xai-Xai,-25.0519444,33.6441667,67.12,95.0,5.0,4.72,MZ,2020-09-16 03:35:38
Fairbanks,64.8377778,-147.7163889,59.0,44.0,40.0,4.7,US,2020-09-16 03:35:02
Longlac,49.783333,-86.55,,,,,CA,
Kapit,2.016667,112.933333,88.72,55.0,99.0,3.11,MY,2020-09-16 03:35:39
Barentsburg,78.0666667,14.233333300000002,,,,,SJ,
Tongliao,43.6125,122.26527800000001,64.67,51.0,0.0,20.96,CN,2020-09-16 03:34:47
Gurskoye,50.316666999999995,138.116667,,,,,RU,
Flinders,-32.799240000000005,134.211594,79.0,63.0,6.0,1.99,AU,2020-09-16 03:35:39
Fort Nelson,58.816667,-122.53333300000001,50.0,57.0,40.0,6.93,CA,2020-09-16 03:35:39
Agirish,61.924721999999996,63.023056000000004,50.97,84.0,100.0,12.66,RU,2020-09-16 03:35:40
Iacobeni,47.433333000000005,25.316667000000002,49.89,82.0,0.0,1.34,RO,2020-09-16 03:35:40
Manacapuru,-3.3,-60.61666700000001,77.0,88.0,100.0,4.7,BR,2020-09-16 03:35:40
Neiafu,-18.65,-173.9833333,77.0,78.0,40.0,11.41,TO,2020-09-16 03:35:40
Jiaocheng,26.661666999999998,119.522778,91.42,54.0,47.0,4.76,CN,2020-09-16 03:35:40
Shingu,33.716667,130.433333,78.8,74.0,75.0,6.93,JP,2020-09-16 03:35:41
Florianopolis,-27.583333000000003,-48.566666999999995,64.4,72.0,90.0,10.29,BR,2020-09-16 03:32:16
Saint-Georges,46.116667,-70.666667,82.4,83.0,20.0,4.7,GF,2020-09-16 03:35:41
Hirara,24.803788,125.302222,87.8,66.0,75.0,12.75,JP,2020-09-16 03:35:41
Sorland,67.666667,12.7,44.6,81.0,75.0,14.99,NO,2020-09-16 03:35:41
Santander,43.464721999999995,-3.804444,68.0,100.0,40.0,1.92,ES,2020-09-16 03:33:53
Altay,47.866667,88.116667,66.22,26.0,5.0,6.22,CN,2020-09-16 03:35:42
Gushikawa,26.354444,127.86861100000002,89.6,79.0,90.0,6.93,JP,2020-09-16 03:35:42
Maghama,15.516666699999998,-12.85,,,,,MR,
Marrakesh,31.631484999999998,-8.008281,75.2,57.0,98.0,4.7,MA,2020-09-16 03:35:42
Tuatapere,-46.133333,167.683333,51.01,89.0,100.0,18.99,NZ,2020-09-16 03:35:43
Belaya Gora,68.533333,146.416667,45.0,81.0,100.0,9.78,RU,2020-09-16 03:35:43
Sanary-Sur-Mer,43.117835,5.800065,69.01,82.0,0.0,4.7,FR,2020-09-16 03:35:43
Saint-Michel-Des-Saints,46.666667,-73.916667,43.2,94.0,100.0,6.78,CA,2020-09-16 03:35:43
Bambous Virieux,-20.3427778,57.7575,70.0,60.0,75.0,11.41,MU,2020-09-16 03:35:43
Masjed-E Soleyman,31.9364,49.3039,,,,,IR,
Winfield,41.8616667,-88.1608333,69.01,93.0,1.0,6.53,US,2020-09-16 03:35:44
Linchuan,27.938274,116.29268799999998,,,,,CN,
Marquette,46.54361110000001,-87.39527779999999,64.99,83.0,37.0,4.68,US,2020-09-16 03:35:44
Pandan,13.7421,123.0815,84.31,80.0,100.0,10.27,PH,2020-09-16 03:35:44
Clyde River,70.45,-68.56666700000001,32.0,94.0,90.0,9.17,CA,2020-09-16 03:35:45
Constitucion,-35.333333,-72.416667,51.42,88.0,100.0,5.88,MX,2020-09-16 03:35:45
Storforshei,66.4,14.516667000000002,42.71,76.0,100.0,5.61,NO,2020-09-16 03:35:45
Kawalu,-7.3817,108.2082,81.93,52.0,71.0,5.97,ID,2020-09-16 03:35:45
Barcelona,41.398371000000004,2.1741,73.0,94.0,20.0,4.7,VE,2020-09-16 03:32:34
Corciano,43.133333,12.283333,64.0,88.0,24.0,5.82,IT,2020-09-16 03:35:46
Kieta,-6.2166667,155.6333333,83.17,65.0,100.0,2.77,PG,2020-09-16 03:35:46
Honiara,-9.433333300000001,159.95,91.4,59.0,75.0,16.11,SB,2020-09-16 03:35:46
Hualmay,-11.0902778,-77.6294444,59.83,84.0,73.0,8.1,PE,2020-09-16 03:35:46
Didao,45.366667,130.8,65.89,72.0,100.0,6.55,CN,2020-09-16 03:35:47
Ambodifototra,-16.9833333,49.85,,,,,MG,
Yaan,29.989788,103.003694,72.1,98.0,100.0,5.66,CN,2020-09-16 03:35:48
Vila,-17.7333333,168.31666669999998,55.0,92.0,29.0,1.01,VU,2020-09-16 03:35:48
Vaitupu,-13.233333300000002,-176.15,,,,,WF,
Alofi,-19.0166667,-169.91666669999998,77.0,69.0,75.0,17.22,NU,2020-09-16 03:35:48
Serenje,-13.233333300000002,30.233333299999998,59.25,54.0,0.0,2.59,ZM,2020-09-16 03:34:07
Kitakata,37.65,139.866667,78.01,73.0,75.0,2.24,JP,2020-09-16 03:35:49
Le Vauclin,14.5333333,-60.8333333,84.2,79.0,20.0,11.41,MQ,2020-09-16 03:35:49
Bocaiuva,-17.116667,-43.816666999999995,75.2,41.0,10.0,5.82,BR,2020-09-16 03:35:49
Sfantu Gheorghe,44.883333,29.6,54.0,87.0,91.0,3.04,RO,2020-09-16 03:35:49
Phan Thiet,10.933333,108.1,88.09,61.0,94.0,9.44,VN,2020-09-16 03:35:49
Micheweni,-4.9666667,39.8333333,75.13,80.0,97.0,6.76,TZ,2020-09-16 03:35:50
Iwanai,42.974444,140.50888899999998,69.75,85.0,24.0,4.12,JP,2020-09-16 03:35:50
Parrita,9.52012,-84.322487,68.0,100.0,100.0,3.36,CR,2020-09-16 03:34:33
Nyagan,62.140556000000004,65.39361099999999,53.46,87.0,100.0,10.89,RU,2020-09-16 03:35:50
Ostrovnoy,68.05305600000001,39.513056,41.94,78.0,99.0,9.86,RU,2020-09-16 03:35:50
Francistown,-21.1666667,27.516666700000002,64.65,30.0,30.0,8.88,BW,2020-09-16 03:35:52
Alta Floresta,-9.9,-55.9,77.61,31.0,21.0,2.35,BR,2020-09-16 03:35:52
Rio Grande,-32.033333,-52.083333,56.89,94.0,100.0,10.31,BR,2020-09-16 03:34:25
Iquique,-20.22083,-70.14305999999999,60.8,77.0,90.0,6.93,CL,2020-09-16 03:35:52
Ouesso,1.6136111000000002,16.0516667,71.01,94.0,88.0,2.77,CG,2020-09-16 03:35:52
Herat,34.348167,62.199673,69.8,21.0,0.0,15.5,AF,2020-09-16 03:34:27
Vostok,46.485556,135.883333,66.99,69.0,100.0,3.51,RU,2020-09-16 03:35:53
Nome,64.5011111,-165.4063889,48.99,93.0,90.0,20.8,US,2020-09-16 03:35:53
Yukon,35.506666700000004,-97.76222220000001,73.4,83.0,2.0,5.82,US,2020-09-16 03:34:06
Guerrero Negro,27.976944,-114.06111100000001,76.93,60.0,0.0,14.41,MX,2020-09-16 03:35:53
Gaomi,36.383333,119.752778,82.4,58.0,31.0,6.71,CN,2020-09-16 03:35:53
Mae Hong Son,19.308543,97.96530200000001,86.0,70.0,20.0,3.36,TH,2020-09-16 03:35:54
Davidson,51.266667,-105.96666699999999,75.2,73.0,40.0,5.82,CA,2020-09-16 03:34:24
Qui Nhon,13.766667000000002,109.233333,90.32,56.0,91.0,2.17,VN,2020-09-16 03:35:54
Lata,-10.7166667,165.83333330000002,61.0,85.0,29.0,1.79,SB,2020-09-16 03:35:54
Kijang,0.9,104.633333,71.6,83.0,75.0,5.82,ID,2020-09-16 03:35:54
Borlange,60.483332999999995,15.416667000000002,,,,,SE,
Meyungs,7.351944400000001,134.4544444,,,,,PW,
Chagda,58.7475,130.619722,,,,,RU,
Antofagasta,-23.65,-70.4,57.2,76.0,75.0,8.05,CL,2020-09-16 03:35:55
Roebourne,-20.772289,117.146477,94.35,18.0,14.0,10.27,AU,2020-09-16 03:35:55
Tobol,52.68444399999999,62.579443999999995,49.24,66.0,100.0,24.67,KZ,2020-09-16 03:35:55
Ponta Pora,-22.533333,-55.716667,68.65,38.0,55.0,5.23,BR,2020-09-16 03:35:56
Korla,41.759722,86.14694399999999,72.84,21.0,0.0,12.5,CN,2020-09-16 03:35:56
Labuhan,-6.3784,105.83,89.4,44.0,100.0,1.48,ID,2020-09-16 03:35:56
General Pico,-35.656622,-63.756815,51.53,63.0,60.0,8.61,AR,2020-09-16 03:35:56
Souillac,-20.5166667,57.5166667,69.8,60.0,75.0,11.41,MU,2020-09-16 03:35:57
Leningradskiy,69.383333,178.416667,38.32,92.0,100.0,7.34,RU,2020-09-16 03:35:57
Camapua,-19.5,-54.083332999999996,75.07,26.0,0.0,5.57,BR,2020-09-16 03:35:57
San Pedro,-33.679127,-59.666635,88.0,74.0,75.0,11.41,BO,2020-09-16 03:35:57
Lethem,3.3833333,-59.8,75.81,80.0,63.0,2.04,GY,2020-09-16 03:35:57
Husavik,66.05,-17.35,41.0,75.0,100.0,8.05,IS,2020-09-16 03:35:58
Alugan,12.2188,125.4808,79.23,90.0,100.0,17.54,PH,2020-09-16 03:35:58
Nanortalik,60.1166667,-45.216666700000005,43.2,91.0,100.0,17.87,GL,2020-09-16 03:35:51
Stauceni,47.716667,26.75,55.4,82.0,0.0,2.24,RO,2020-09-16 03:35:58
Vila Velha,-20.333333,-40.283333,72.0,88.0,75.0,8.05,BR,2020-09-16 03:35:59
Santiago,-29.183333,-54.88333299999999,48.2,87.0,100.0,6.93,PH,2020-09-16 03:35:52
Krasnoselkup,65.7,82.466667,57.04,64.0,30.0,15.32,RU,2020-09-16 03:36:00
Copiapo,-27.366667,-70.333333,53.6,81.0,1.0,11.41,CL,2020-09-16 03:36:00
Andenes,69.320278,16.142778,41.0,100.0,77.0,3.36,NO,2020-09-16 03:36:00
Palmer,61.59972220000001,-149.1127778,50.0,93.0,75.0,4.54,US,2020-09-16 03:36:00
Bosaso,11.2847222,49.1825,90.82,53.0,0.0,1.39,SO,2020-09-16 03:36:00
Beysehir,37.677347999999995,31.724577000000004,61.43,59.0,0.0,4.23,TR,2020-09-16 03:36:01
Alyangula,-13.85413,136.421295,89.6,46.0,40.0,13.87,AU,2020-09-16 03:36:01
Pangnirtung,66.133333,-65.75,34.27,78.0,71.0,3.24,CA,2020-09-16 03:36:01
Matara,5.9486111,80.5427778,82.11,81.0,63.0,12.44,LK,2020-09-16 03:32:14
Barbar,18.0166667,33.9833333,,,,,SD,
Port Blair,11.666667,92.75,82.42,78.0,100.0,16.11,IN,2020-09-16 03:36:02
Lolua,-5.6666667,176.1333333,,,,,TV,
Esfarayen,37.076448,57.510086,57.2,76.0,40.0,2.24,IR,2020-09-16 03:36:02
Plaster Rock,46.9,-67.383333,46.4,65.0,90.0,3.36,CA,2020-09-16 03:36:02
Longido,-2.7333333,36.6833333,61.5,88.0,40.0,3.53,TZ,2020-09-16 03:36:03
Mokhotlong,-29.2833333,29.0833333,44.49,57.0,60.0,3.94,LS,2020-09-16 03:36:03
Ipixuna,-7.051667,-71.693056,78.8,83.0,48.0,12.75,BR,2020-09-16 03:36:03
Franklin,39.4805556,-86.055,55.4,87.0,1.0,5.82,US,2020-09-16 03:31:20
Ahuimanu,21.444722199999998,-157.83777780000003,84.2,65.0,20.0,10.29,US,2020-09-16 03:36:03
Torbay,47.65,-52.733332999999995,50.0,70.0,75.0,11.41,CA,2020-09-16 03:36:04
Ivnya,51.062939,36.134263,57.2,93.0,75.0,6.71,RU,2020-09-16 03:36:04
Santona,43.443864000000005,-3.4575709999999997,68.0,100.0,40.0,1.77,ES,2020-09-16 03:36:04
Karratha,-20.73649,116.84638000000001,94.78,18.0,9.0,12.37,AU,2020-09-16 03:36:04
Suez,29.9666667,32.55,73.65,87.0,0.0,8.86,EG,2020-09-16 03:36:05
Narasannapeta,18.416667,84.05,85.77,74.0,67.0,3.71,IN,2020-09-16 03:36:05
Kruisfontein,-34.003333000000005,24.731417,50.0,90.0,0.0,1.01,ZA,2020-09-16 03:36:05
Tawnat,34.538222,-4.641433999999999,,,,,MA,
Grindavik,63.833332999999996,-22.433332999999998,46.4,87.0,90.0,14.99,IS,2020-09-16 03:36:05
Byron Bay,-28.64201,153.61193799999998,71.01,73.0,90.0,2.24,AU,2020-09-16 03:36:06
Waynesboro,39.7558333,-77.5780556,50.0,93.0,1.0,5.82,US,2020-09-16 03:36:08
Buchanan,5.8808333,-10.0466667,77.0,94.0,75.0,4.65,LR,2020-09-16 03:36:08
Rio Branco,-9.966667,-67.8,73.4,100.0,21.0,4.7,UY,2020-09-16 03:36:08
Santa Isabel Do Rio Negro,-0.4,-65.033333,74.26,96.0,100.0,2.73,BR,2020-09-16 03:36:08
Sassandra,4.95,-6.0833330000000005,74.16,91.0,92.0,6.4,CI,2020-09-16 03:36:08
Mitchell,43.466667,-81.18333299999999,73.4,60.0,1.0,6.93,US,2020-09-16 03:36:09
Nouadhibou,20.9,-17.0666667,76.51,77.0,0.0,9.26,MR,2020-09-16 03:36:09
Ugoofaaru,5.6666667,73.0,82.18,77.0,82.0,9.44,MV,2020-09-16 03:36:09
Port Alberni,49.233333,-124.8,63.0,88.0,82.0,1.34,CA,2020-09-16 03:36:09
Tres Picos,15.866667000000001,-93.533333,79.2,77.0,100.0,1.61,MX,2020-09-16 03:36:10
Binabalian,16.4202,119.9279,84.83,75.0,100.0,13.42,PH,2020-09-16 03:36:10
Yulara,-25.245291,130.980545,89.6,11.0,0.0,12.75,AU,2020-09-16 03:36:10
Derzhavinsk,51.1,66.31666700000001,51.46,62.0,0.0,25.99,KZ,2020-09-16 03:36:10
Lorengau,-2.0166667,147.2666667,86.18,69.0,100.0,13.47,PG,2020-09-16 03:36:10
Olinda,-8.016667,-34.85,77.0,83.0,40.0,12.75,BR,2020-09-16 03:34:16
Biloela,-24.416667,150.5,76.95,44.0,67.0,8.1,AU,2020-09-16 03:36:11
Sao Jose Da Coroa Grande,-8.9,-35.15,74.05,86.0,11.0,11.95,BR,2020-09-16 03:36:11
San Andres,6.903333,-75.6825,78.8,94.0,75.0,6.87,CO,2020-09-16 03:36:11
Verkhoyansk,67.544722,133.385,52.2,53.0,21.0,4.36,RU,2020-09-16 03:36:12
Gladstone,-23.84761,151.256348,75.2,60.0,75.0,13.87,AU,2020-09-16 03:36:12
Namatanai,-3.6666667,152.43333330000002,82.98,75.0,78.0,9.01,PG,2020-09-16 03:36:12
San Fernando,9.268325,-74.530213,86.0,74.0,90.0,6.93,MX,2020-09-16 03:36:12
Faanui,-16.4833333,-151.75,77.95,78.0,0.0,15.17,PF,2020-09-16 03:36:12
Nsanje,-16.9166667,35.2666667,76.01,66.0,68.0,4.97,MW,2020-09-16 03:36:13
Weiser,44.2511111,-116.96833329999998,62.6,55.0,1.0,3.06,US,2020-09-16 03:33:06
Komatipoort,-25.433204999999997,31.954777000000004,66.99,82.0,33.0,1.12,ZA,2020-09-16 03:36:13
Bow Island,49.866667,-111.36666699999999,53.6,62.0,75.0,8.05,CA,2020-09-16 03:36:13
Kulykiv,50.314244,24.817569,57.34,78.0,1.0,5.5,UA,2020-09-16 03:36:13
Ancud,-41.869721999999996,-73.820278,40.86,83.0,5.0,5.12,CL,2020-09-16 03:36:14
Tahe,52.333333,124.733333,62.02,50.0,100.0,5.44,CN,2020-09-16 03:33:43
Tokmak,42.8413889,75.2883333,60.01,79.0,0.0,7.23,KG,2020-09-16 03:36:14
Lazaro Cardenas,17.958333,-102.2,79.07,84.0,97.0,3.31,MX,2020-09-16 03:36:14
Lerwick,60.15,-1.15,48.2,87.0,17.0,6.93,GB,2020-09-16 03:36:14
Muroto,33.283333,134.15,77.0,83.0,75.0,5.82,JP,2020-09-16 03:36:15
Vysokogornyy,50.116667,139.15,63.52,69.0,83.0,2.53,RU,2020-09-16 03:36:15
Aklavik,68.216667,-135.0,37.4,69.0,75.0,8.05,CA,2020-09-16 03:36:15
Arlit,18.7325,7.3680556,90.48,19.0,0.0,8.14,NE,2020-09-16 03:36:15
Puerto Baquerizo Moreno,-0.9,-89.6,65.77,89.0,50.0,13.49,EC,2020-09-16 03:36:15
Douentza,15.0,-2.95,87.75,39.0,11.0,4.72,ML,2020-09-16 03:36:16
Isangel,-19.55,169.2666667,77.0,73.0,75.0,11.41,VU,2020-09-16 03:34:05
Tumannyy,68.884722,35.694444,,,,,RU,
San Cristobal,9.878093,-75.252482,67.42,90.0,100.0,1.88,EC,2020-09-16 03:36:16
Dakar,14.670833300000002,-17.438055600000002,71.6,94.0,40.0,8.05,SN,2020-09-16 03:35:00
Hodkovice Nad Mohelkou,50.665805,15.090202,64.0,82.0,28.0,4.41,CZ,2020-09-16 03:36:17
Manzhouli,49.6,117.433333,56.71,46.0,100.0,27.11,CN,2020-09-16 03:36:17
Greystones,53.1408333,-6.063055599999999,59.0,97.0,73.0,3.06,IE,2020-09-16 03:36:17
Jalu,29.0333333,21.55,81.14,34.0,0.0,9.28,LY,2020-09-16 03:36:17
Hihifo,-15.95,-173.75,,,,,TO,
Brae,60.38333299999999,-1.35,48.2,87.0,1.0,6.93,GB,2020-09-16 03:36:18
Novikovo,46.288333,143.393889,53.55,89.0,22.0,4.97,RU,2020-09-16 03:36:18
The Pas,53.816667,-101.233333,46.4,81.0,90.0,24.16,CA,2020-09-16 03:36:18
Tiruvottiyur,13.157778,80.304167,,,,,IN,
Corinto,-18.35,-44.45,71.01,48.0,0.0,7.09,NI,2020-09-16 03:36:18
Jena,50.933333000000005,11.583333,64.0,78.0,25.0,3.11,DE,2020-09-16 03:36:19
Sechura,-5.5530555999999995,-80.8202778,62.31,81.0,32.0,12.95,PE,2020-09-16 03:36:19
Fukue,32.688056,128.84194399999998,73.4,88.0,75.0,3.36,JP,2020-09-16 03:36:19
Ongandjera,-17.8833333,15.066666699999999,56.03,36.0,0.0,7.74,NA,2020-09-16 03:36:19
Longyearbyen,78.2166667,15.633333300000002,31.05,93.0,99.0,3.83,SJ,2020-09-16 03:35:52
Tura,47.609242,19.60279,75.74,96.0,100.0,3.65,RU,2020-09-16 03:36:03
Changping,40.218610999999996,116.21972199999999,75.2,23.0,0.0,17.9,CN,2020-09-16 03:36:20
Padang,-0.9531540000000001,100.367659,86.23,58.0,95.0,2.68,ID,2020-09-16 03:36:20
Kapoeta,4.7716667,33.5902778,74.93,79.0,88.0,1.45,SD,2020-09-16 03:36:20
Chapais,49.783333,-74.866667,44.6,81.0,90.0,12.75,CA,2020-09-16 03:36:20
Neftegorsk,44.3658,39.7078,47.64,78.0,44.0,16.82,RU,2020-09-16 03:36:20
Hamilton,-37.74334,142.02891499999998,60.01,93.0,1.0,3.91,BM,2020-09-16 03:36:21
Awjilah,29.108055600000004,21.2869444,81.3,33.0,2.0,9.37,LY,2020-09-16 03:36:21
Lavrentiya,65.583333,-171.0,45.32,88.0,97.0,12.12,RU,2020-09-16 03:36:21
Egvekinot,66.31666700000001,-179.166667,43.3,79.0,99.0,16.8,RU,2020-09-16 03:36:21
Klamath Falls,42.225,-121.78055559999999,63.0,29.0,1.0,9.17,US,2020-09-16 03:34:08
Pouebo,-20.4,164.56666669999998,73.2,63.0,73.0,17.49,NC,2020-09-16 03:36:22
Hammerfest,70.66166700000001,23.688333,42.8,100.0,75.0,4.7,NO,2020-09-16 03:36:22
Plettenberg Bay,-34.052741999999995,23.3716,51.35,72.0,0.0,6.51,ZA,2020-09-16 03:31:27
Dryden,49.783333,-92.833333,53.6,81.0,90.0,4.7,CA,2020-09-16 03:36:22
Strzelce Opolskie,50.513404,18.305401,62.01,88.0,100.0,6.82,PL,2020-09-16 03:36:23
Bara,12.0717,123.6395,71.71,90.0,87.0,1.86,SD,2020-09-16 03:36:23
Garden City,32.1141667,-81.1541667,62.01,82.0,40.0,5.82,US,2020-09-16 03:32:19
Kidal,18.4411111,1.4077778,88.5,18.0,24.0,3.62,ML,2020-09-16 03:36:23
Leshukonskoye,64.898939,45.762196,41.34,87.0,35.0,7.49,RU,2020-09-16 03:36:23
Yamoussoukro,6.820548,-5.276741,73.4,100.0,90.0,9.17,CI,2020-09-16 03:36:24
Ambulu,-8.3504,113.6069,84.88,55.0,40.0,9.35,ID,2020-09-16 03:36:24
Quatre Cocos,-20.207777800000002,57.7625,70.0,60.0,75.0,11.41,MU,2020-09-16 03:36:24
Pimentel,19.1833333,-70.1,59.88,88.0,63.0,12.3,PE,2020-09-16 03:36:24
Majene,-3.5403,118.9707,86.47,56.0,17.0,11.9,ID,2020-09-16 03:36:24
Sampit,-2.5333330000000003,112.95,92.3,38.0,34.0,4.99,ID,2020-09-16 03:36:25
Atikokan,48.75,-91.616667,53.28,85.0,100.0,3.94,CA,2020-09-16 03:36:25
Aquiraz,-3.9,-38.366667,78.8,78.0,20.0,16.11,BR,2020-09-16 03:36:25
Ixtapa,16.8,-92.916667,84.2,83.0,90.0,4.7,MX,2020-09-16 03:36:25
Sitka,57.0530556,-135.33,57.2,71.0,20.0,5.82,US,2020-09-16 03:36:25
Saint-Francois,16.25,-61.2666667,59.0,82.0,9.0,2.24,GP,2020-09-16 03:36:26
Kuche,41.727778,82.936389,,,,,CN,
Lagoa,37.135349,-8.453188,65.48,68.0,92.0,19.8,PT,2020-09-16 03:36:26
Pontes E Lacerda,-15.2,-59.36666700000001,72.5,40.0,0.0,1.86,BR,2020-09-16 03:36:26
Suhbaatar,50.2313889,106.20777779999999,51.15,69.0,93.0,3.62,MN,2020-09-16 03:36:26
Tucumcari,35.1716667,-103.7244444,68.0,42.0,1.0,6.93,US,2020-09-16 03:36:27
Ouallam,14.316666699999999,2.0833333,81.95,70.0,42.0,19.48,NE,2020-09-16 03:36:27
Meulaboh,4.1363,96.1285,85.14,67.0,19.0,5.03,ID,2020-09-16 03:36:27
Berlevag,70.85,29.1,44.6,93.0,75.0,4.7,NO,2020-09-16 03:36:27
Atar,20.5166667,-13.05,90.54,37.0,0.0,8.52,MR,2020-09-16 03:36:28
Saint-Louis,47.588364,7.562469,86.0,66.0,62.0,2.24,SN,2020-09-16 03:36:28
Westport,53.8,-9.516666699999998,62.6,63.0,1.0,10.29,NZ,2020-09-16 03:33:09
Hoi An,15.879444,108.335,93.2,56.0,20.0,4.7,VN,2020-09-16 03:36:28
Galle,6.0536110999999995,80.2116667,81.81,83.0,86.0,13.58,LK,2020-09-16 03:36:28
Mimongo,-1.6333333,11.65,68.9,91.0,97.0,4.0,GA,2020-09-16 03:36:29
Hwange,-18.3666667,26.483333299999998,63.36,41.0,0.0,0.63,ZW,2020-09-16 03:36:29
Russell,-35.266667,174.116667,73.4,83.0,90.0,10.29,NZ,2020-09-16 03:36:29
Anan,33.916667,134.65,78.8,78.0,75.0,4.7,JP,2020-09-16 03:36:29
Harper,4.375,-7.7169444,74.97,88.0,94.0,8.84,LR,2020-09-16 03:36:29
Maniitsoq,65.41666670000001,-52.9,43.02,77.0,83.0,7.49,GL,2020-09-16 03:36:30
Luganville,-15.5333333,167.16666669999998,80.6,74.0,75.0,12.75,VU,2020-09-16 03:36:30
Codrington,17.6333333,-61.8333333,63.88,60.0,100.0,7.74,AG,2020-09-16 03:36:25
Margate,51.383333,1.416667,66.0,97.0,95.0,1.01,ZA,2020-09-16 03:36:30
Mahanoro,-19.9,48.8,68.45,84.0,61.0,6.06,MG,2020-09-16 03:36:30
Rwamagana,-1.9525,30.4377778,66.2,77.0,40.0,2.24,RW,2020-09-16 03:36:31
Wattegama,6.8,81.5,82.4,94.0,40.0,11.41,LK,2020-09-16 03:36:31
Chengde,40.770278000000005,118.169722,65.98,39.0,0.0,16.93,CN,2020-09-16 03:36:31
Boffa,10.166666699999999,-14.0333333,74.61,94.0,95.0,1.52,GN,2020-09-16 03:36:31
Sabang,5.893333,95.321389,83.37,70.0,69.0,14.12,ID,2020-09-16 03:36:31
Uyuni,-20.466666699999998,-66.83333329999999,41.34,63.0,69.0,13.82,BO,2020-09-16 03:36:32
Airai,7.3575,134.55777780000003,78.3,39.0,64.0,4.23,PW,2020-09-16 03:36:32
Beringovskiy,63.05,179.316667,47.91,87.0,100.0,9.64,RU,2020-09-16 03:36:32
Rungata,-1.35,176.43333330000002,,,,,KI,
Havoysund,71.000556,24.696111,42.8,100.0,75.0,4.7,NO,2020-09-16 03:36:32
Oyama,34.6,138.216667,78.8,61.0,75.0,3.36,JP,2020-09-16 03:36:33
Alekseyevsk,57.835,108.35611100000001,58.06,55.0,4.0,4.85,RU,2020-09-16 03:36:33
Ahar,38.4774,47.0699,61.92,71.0,0.0,4.16,IR,2020-09-16 03:36:33
Vestmannaeyjar,63.365,-20.2075,48.06,73.0,100.0,13.04,IS,2020-09-16 03:36:33
Soyo,-6.1349029999999996,12.368935,72.34,85.0,42.0,7.02,AO,2020-09-16 03:36:34
Carauari,-4.879167,-66.89805600000001,74.23,94.0,88.0,3.69,BR,2020-09-16 03:36:34
Grande-Riviere,48.383333,-64.5,,,,,CA,
Qujing,25.483333,103.783333,69.22,80.0,100.0,9.75,CN,2020-09-16 03:36:34
Kindu,-2.95,25.95,69.62,97.0,75.0,2.1,CD,2020-09-16 03:36:34
Flagstaff,35.1980556,-111.65055559999999,60.01,22.0,1.0,2.35,US,2020-09-16 03:32:30
Trat,12.241028,102.515472,86.0,74.0,75.0,9.17,TH,2020-09-16 03:36:35
Kota Kinabalu,5.9749,116.0724,86.0,66.0,20.0,11.41,MY,2020-09-16 03:36:35
Calabar,4.9517,8.322000000000001,74.05,94.0,100.0,4.36,NG,2020-09-16 03:36:35
Bilma,18.6866667,12.919166699999998,87.46,30.0,0.0,6.29,NE,2020-09-16 03:36:35
Mocajuba,-2.583333,-49.5,77.95,74.0,42.0,4.99,BR,2020-09-16 03:36:35
Shenjiamen,29.957625,122.29801699999999,76.12,93.0,100.0,5.53,CN,2020-09-16 03:36:08
Itarema,-2.9,-39.966667,76.73,80.0,0.0,14.81,BR,2020-09-16 03:36:36
Tucuma,-0.183333,-50.05,78.28,89.0,46.0,8.77,BR,2020-09-16 03:36:36
Tawkar,18.4333333,37.7333333,,,,,SD,
Kutno,52.228953999999995,19.361672,62.01,93.0,49.0,2.24,PL,2020-09-16 03:36:36
Boljarovo,42.15,26.816666700000003,,,,,BG,
Mujiayingzi,42.116667,118.78333300000001,60.87,46.0,28.0,23.4,CN,2020-09-16 03:36:37
Porto Novo,17.033333300000002,-25.0666667,73.4,94.0,20.0,4.7,CV,2020-09-16 03:36:37
Turayf,31.672515999999998,38.663734999999996,78.8,26.0,75.0,2.24,SA,2020-09-16 03:36:37
Comodoro Rivadavia,-45.864135,-67.496558,39.2,64.0,2.0,2.98,AR,2020-09-16 03:33:21
Oil City,41.4338889,-79.7066667,51.8,76.0,1.0,3.36,US,2020-09-16 03:35:42
Samusu,-13.9666667,-171.3666667,,,,,WS,
Kamachumu,-1.6186111,31.62,68.0,94.0,35.0,1.57,TZ,2020-09-16 03:36:38
Enumclaw,47.20444439999999,-121.99027779999999,68.0,84.0,84.0,2.33,US,2020-09-16 03:36:38
Keti Bandar,24.144722,67.449722,85.24,76.0,90.0,9.08,PK,2020-09-16 03:36:38
Yar-Sale,66.833333,70.833333,53.1,81.0,76.0,8.01,RU,2020-09-16 03:36:38
Ayan,56.45,138.166667,56.68,73.0,1.0,9.8,RU,2020-09-16 03:36:38
Contai,21.778610999999998,87.75361099999999,88.2,74.0,33.0,8.01,IN,2020-09-16 03:36:39
Roma,-26.56741,148.787506,46.99,87.0,1.0,3.36,AU,2020-09-16 03:36:39
Sept-Iles,50.2,-66.383333,32.0,68.0,5.0,3.76,CA,2020-09-16 03:36:39
Taoudenni,22.6666667,-3.9833333,96.33,16.0,0.0,17.85,ML,2020-09-16 03:36:39
Buta,2.8,24.733333,68.94,98.0,100.0,2.39,CD,2020-09-16 03:36:40
Sadabad,27.45,78.05,86.0,89.0,40.0,2.24,IN,2020-09-16 03:36:40
Babynino,54.393846999999994,35.770128,39.2,100.0,76.0,2.24,RU,2020-09-16 03:36:40
Mocuba,-16.840277800000003,38.256944399999995,72.73,72.0,1.0,4.27,MZ,2020-09-16 03:36:40
Gravdal,68.12138900000001,13.503055999999999,44.6,81.0,75.0,14.99,NO,2020-09-16 03:36:40
Sangar,63.924167000000004,127.47388899999999,55.83,48.0,0.0,3.53,RU,2020-09-16 03:36:41
Yairipok,24.666667,94.06666700000001,69.8,88.0,75.0,4.7,IN,2020-09-16 03:36:41
Semibratovo,57.304611,39.536875,46.4,87.0,1.0,6.71,RU,2020-09-16 03:36:41
Nhulunbuy,-12.18652,136.78201299999998,84.2,62.0,75.0,17.22,AU,2020-09-16 03:36:41
Kroya,-7.483889,108.92361100000001,83.08,59.0,67.0,9.46,ID,2020-09-16 03:36:41
Zhicheng,31.006110999999997,119.90361100000001,71.06,90.0,100.0,2.66,CN,2020-09-16 03:36:42
Ngunguru,-35.616667,174.5,64.99,44.0,9.0,8.99,NZ,2020-09-16 03:36:42
Wukari,7.85,9.783333,72.36,96.0,100.0,9.01,NG,2020-09-16 03:36:42
Tilichiki,60.466667,166.1,49.23,66.0,89.0,9.37,RU,2020-09-16 03:36:42
Erzurum,39.908611,41.276944,53.6,71.0,0.0,6.93,TR,2020-09-16 03:36:43
Skalistyy,69.255064,33.336161,,,,,RU,
Mont-Dore,-22.283333300000002,166.58333330000002,77.0,93.0,63.0,15.32,NC,2020-09-16 03:36:43
Rabo De Peixe,37.8,-25.583333,64.4,63.0,20.0,10.29,PT,2020-09-16 03:36:43
Surt,31.206111100000005,16.5947222,76.12,78.0,19.0,6.96,LY,2020-09-16 03:36:43
Corn Island,12.166666699999999,-83.0333333,84.45,77.0,74.0,6.46,NI,2020-09-16 03:36:44
Dunda,-8.1166667,34.25,60.37,77.0,66.0,1.28,TZ,2020-09-16 03:36:44
Bambui,-20.016667,-45.966667,65.52,68.0,1.0,2.33,BR,2020-09-16 03:36:44
Papa,47.330044,17.467398,59.0,93.0,0.0,4.27,HU,2020-09-16 03:36:44
Guymon,36.6827778,-101.48111109999999,64.4,68.0,1.0,3.36,US,2020-09-16 03:36:44
Artvin,41.182221999999996,41.819444,71.6,94.0,90.0,6.93,TR,2020-09-16 03:36:45
Bontang,0.13333299999999998,117.5,86.72,61.0,57.0,6.8,ID,2020-09-16 03:36:45
Gurupa,-1.416667,-51.65,78.55,79.0,80.0,6.02,BR,2020-09-16 03:31:48
Charters Towers,-20.076710000000002,146.26353500000002,82.08,37.0,49.0,13.51,AU,2020-09-16 03:36:45
Awbari,26.5833333,12.766666699999998,71.76,49.0,0.0,8.66,LY,2020-09-16 03:36:45
Taltal,-25.4,-70.483333,55.38,74.0,8.0,3.69,CL,2020-09-16 03:36:45
Rocha,-34.4833333,-54.3333333,47.21,88.0,99.0,0.72,UY,2020-09-16 03:36:46
San Patricio,19.216667,-104.7,79.77,86.0,70.0,5.59,MX,2020-09-16 03:36:46
Gongzhuling,43.507222,124.81222199999999,68.02,70.0,49.0,17.65,CN,2020-09-16 03:36:46
Fortuna,-5.683333,-44.066666999999995,66.99,88.0,1.0,6.93,US,2020-09-16 03:36:46
Fevralsk,52.466667,130.716667,,,,,RU,
Mirpur Khas,25.5251,69.0159,91.2,59.0,0.0,10.83,PK,2020-09-16 03:36:47
General Roca,-39.02797,-67.573711,53.6,93.0,90.0,2.24,AR,2020-09-16 03:36:47
Oxford,45.733333,-63.86666700000001,62.01,93.0,65.0,3.36,NZ,2020-09-16 03:36:47
Tomatlan,19.933332999999998,-105.25,77.58,91.0,99.0,2.17,MX,2020-09-16 03:36:47
Santa Cruz Del Sur,20.714722199999997,-77.9955556,78.6,87.0,94.0,12.1,CU,2020-09-16 03:36:48
Chihuahua,28.633333,-106.08333300000001,70.0,73.0,75.0,6.15,MX,2020-09-16 03:36:48
Macusani,-14.083333300000001,-70.4333333,36.95,82.0,70.0,1.07,PE,2020-09-16 03:36:48
Takaka,-40.85,172.8,55.0,76.0,1.0,8.99,NZ,2020-09-16 03:34:13
Aitape,-3.1333333,142.35,84.47,77.0,88.0,9.6,PG,2020-09-16 03:36:48
Chicama,-7.7025,-79.4391667,60.76,83.0,66.0,4.47,PE,2020-09-16 03:36:49
Cortez,37.3488889,-108.5852778,59.0,47.0,1.0,5.82,US,2020-09-16 03:36:49
Ryotsu,38.083333,138.433333,78.8,69.0,95.0,5.82,JP,2020-09-16 03:36:49
Sungaipenuh,-2.083333,101.383333,78.08,62.0,98.0,4.68,ID,2020-09-16 03:36:49
Grosseto,42.766667,11.133333,66.99,88.0,39.0,1.12,IT,2020-09-16 03:36:49
Lydenburg,-25.097803,30.459671999999998,64.0,84.0,20.0,1.99,ZA,2020-09-16 03:36:50
Pingliang,35.539167,106.68611100000001,65.98,31.0,96.0,6.38,CN,2020-09-16 03:35:25
Tuy Hoa,13.083333,109.3,89.1,60.0,97.0,10.38,VN,2020-09-16 03:36:50
Dargaville,-35.933333000000005,173.883333,59.95,70.0,10.0,9.46,NZ,2020-09-16 03:36:50
Labutta,16.15,94.7666667,,,,,MM,
Marcona,-15.211944400000002,-75.11027779999999,,,,,PE,
San Francisco,-31.427971000000003,-62.08265600000001,64.0,94.0,20.0,3.0,AR,2020-09-16 03:33:26
Roald,62.583332999999996,6.133333,46.4,87.0,100.0,18.34,NO,2020-09-16 03:36:51
San Rafael Del Sur,11.85,-86.45,80.6,83.0,20.0,4.7,NI,2020-09-16 03:36:51
Tanout,14.970277800000002,8.891666699999998,84.42,50.0,85.0,6.31,NE,2020-09-16 03:36:51
Nueva Concepcion,14.2,-91.3,66.99,98.0,99.0,2.77,GT,2020-09-16 03:36:51
Salalah,17.0175,54.082777799999995,80.6,88.0,40.0,2.24,OM,2020-09-16 03:36:52
Matamoros,25.533333,-103.25,71.01,75.0,77.0,1.01,MX,2020-09-16 03:36:52
Sola,-13.883333300000002,167.55,84.2,70.0,75.0,5.82,VU,2020-09-16 03:36:52
Atambua,-9.106111,124.8925,85.24,42.0,94.0,2.17,ID,2020-09-16 03:36:52
Pemangkat,1.166667,108.96666699999999,82.49,75.0,43.0,9.31,ID,2020-09-16 03:36:52
Bluefield,37.2525,-81.2713889,55.4,93.0,1.0,5.82,US,2020-09-16 03:35:05
San Gabriel,0.6,-77.8166667,77.0,31.0,1.0,4.7,EC,2020-09-16 03:36:53
Cotonou,6.35,2.4333332999999997,73.4,94.0,20.0,4.7,BJ,2020-09-16 03:36:53
Los Llanos De Aridane,28.658507,-17.918211,75.2,83.0,20.0,9.17,ES,2020-09-16 03:36:53
Guekedou,8.5625,-10.1325,,,,,GN,
Maumere,-8.6199,122.2111,83.14,58.0,77.0,1.36,ID,2020-09-16 03:36:54
Ulladulla,-35.359058000000005,150.472473,80.6,28.0,71.0,17.22,AU,2020-09-16 03:36:54
Verkhnevilyuysk,63.445278,120.316667,55.53,67.0,77.0,2.51,RU,2020-09-16 03:36:54
Rudnogorsk,57.2639,103.7519,59.94,47.0,12.0,3.58,RU,2020-09-16 03:36:54
Ipatovo,45.718056,42.903611,61.77,55.0,0.0,7.02,RU,2020-09-16 03:36:54
Venado Tuerto,-33.745564,-61.968844999999995,45.0,78.0,0.0,4.0,AR,2020-09-16 03:36:55
Sabzevar,36.212598,57.681906000000005,60.8,55.0,0.0,6.93,IR,2020-09-16 03:36:55
Nerchinskiy Zavod,51.3088,119.61,57.34,49.0,100.0,13.49,RU,2020-09-16 03:36:55
Tahta,26.768055600000004,31.493888899999998,78.8,39.0,0.0,6.93,EG,2020-09-16 03:36:55
Tiznit,29.697425,-9.731618,76.73,30.0,95.0,2.82,MA,2020-09-16 03:36:55
Adrar,27.9,-0.2833333,94.15,19.0,1.0,10.27,DZ,2020-09-16 03:36:56
Ploemeur,47.733333,-3.433333,61.0,93.0,0.0,4.7,FR,2020-09-16 03:36:56
Lakes Entrance,-37.878941,147.995132,70.0,50.0,100.0,1.99,AU,2020-09-16 03:36:56
Coruripe,-10.133333,-36.166667,73.08,85.0,31.0,11.27,BR,2020-09-16 03:34:23
Xudat,41.630965,48.681000000000004,73.18,52.0,74.0,3.67,AZ,2020-09-16 03:36:56
Ormara,25.2088,64.6357,82.92,79.0,22.0,7.14,PK,2020-09-16 03:36:57
Riacho De Santana,-13.616667000000001,-42.95,70.65,57.0,5.0,12.03,BR,2020-09-16 03:36:57
Erzin,50.261,95.1623,78.01,85.0,14.0,0.78,RU,2020-09-16 03:36:57
Partizanskoye,55.4972,94.3922,59.61,60.0,0.0,4.97,RU,2020-09-16 03:36:57
La Ronge,55.1,-105.3,39.2,48.0,5.0,14.99,CA,2020-09-16 03:36:58
Moindou,-21.7,165.68333330000002,77.0,47.0,90.0,8.05,NC,2020-09-16 03:36:58
Kenora,49.766667,-94.466667,53.6,71.0,90.0,5.82,CA,2020-09-16 03:36:58
Olafsvik,64.883333,-23.716667,46.49,84.0,100.0,25.64,IS,2020-09-16 03:36:02
Itupiranga,-5.15,-49.333333,78.8,61.0,45.0,2.24,BR,2020-09-16 03:36:58
Poya,-21.35,165.15,75.65,55.0,41.0,10.07,NC,2020-09-16 03:36:59
Solnechnyy,50.583333,137.033333,64.44,69.0,50.0,4.63,RU,2020-09-16 03:36:59
Osypenko,46.913598,36.825303000000005,62.94,67.0,0.0,9.4,UA,2020-09-16 03:36:59
San Quintin,30.483333000000002,-115.95,76.98,54.0,0.0,7.2,MX,2020-09-16 03:36:59
Haines Junction,60.75,-137.5,45.07,58.0,95.0,4.97,CA,2020-09-16 03:36:59
Monte Alegre De Minas,-18.866667,-48.866667,71.6,33.0,0.0,6.93,BR,2020-09-16 03:37:00
Shimoda,34.666667,138.95,77.0,88.0,75.0,11.41,JP,2020-09-16 03:33:12
Yeppoon,-23.126829,150.74406399999998,78.8,39.0,2.0,11.41,AU,2020-09-16 03:37:00
Kurchatov,51.6601,35.6521,57.2,93.0,90.0,4.47,RU,2020-09-16 03:37:00
Henties Bay,-22.1166667,14.2833333,48.0,91.0,2.0,1.99,NA,2020-09-16 03:37:00
Thinadhoo,0.5333333,72.9333333,82.17,72.0,89.0,9.8,MV,2020-09-16 03:37:01
Banmo,24.2666667,97.2333333,,,,,MM,
Nioro,15.233333300000002,-9.583333300000001,75.13,95.0,68.0,5.79,ML,2020-09-16 03:37:01
Oktyabrskiy,61.09146,43.167665,47.34,84.0,80.0,16.24,RU,2020-09-16 03:37:01
Taburi,8.675315,117.339895,,,,,PH,
Galesong,-5.3166,119.3661,91.4,36.0,20.0,4.7,ID,2020-09-16 03:37:02
Jilib,0.4958333,42.7727778,76.23,81.0,40.0,6.91,SO,2020-09-16 03:37:02
Erzincan,39.752221999999996,39.492778,51.8,62.0,0.0,4.76,TR,2020-09-16 03:37:02
Bitung,1.4451,125.1824,82.4,61.0,40.0,9.17,ID,2020-09-16 03:37:02
Wahiawa,21.5027778,-158.0236111,84.2,61.0,90.0,9.17,US,2020-09-16 03:37:02
Svetlaya,46.538889000000005,138.329722,63.12,90.0,100.0,9.42,RU,2020-09-16 03:37:03
Olga,43.744444,135.289167,69.84,68.0,100.0,8.72,RU,2020-09-16 03:37:03
Bumba,2.183333,22.466667,68.77,96.0,100.0,2.57,CD,2020-09-16 03:37:03
Ponta Delgada,37.733333,-25.666667,64.4,63.0,20.0,10.29,PT,2020-09-16 03:37:03
Marawi,7.998611,124.292778,75.06,81.0,100.0,5.66,SD,2020-09-16 03:37:04
Arroyo,17.9677778,-66.0616667,59.0,76.0,82.0,4.7,US,2020-09-16 03:37:04
Kirensk,57.785278000000005,108.111944,57.96,55.0,0.0,5.06,RU,2020-09-16 03:37:04
Duz,33.466324,9.020302000000001,,,,,TN,
Arman,59.7,150.166667,55.98,52.0,86.0,5.59,RU,2020-09-16 03:37:04
Lasa,29.65,91.1,57.2,100.0,5.0,3.36,CN,2020-09-16 03:37:04
Aguilas,37.405983,-1.5853,72.0,76.0,2.0,4.0,ES,2020-09-16 03:37:05
Nehe,48.483333,124.83333300000001,56.59,91.0,100.0,18.48,CN,2020-09-16 03:37:05
Panama City,30.1586111,-85.66027779999999,79.0,94.0,100.0,6.93,US,2020-09-16 03:36:04
Xadani,15.933333,-96.06666700000001,,,,,MX,
Beatrice,40.268055600000004,-96.7466667,66.99,88.0,1.0,7.56,US,2020-09-16 03:37:05
Irbeyskoye,55.6396,95.4515,61.29,59.0,0.0,3.74,RU,2020-09-16 03:37:06
Karaman,37.181111,33.215,57.78,61.0,0.0,4.47,TR,2020-09-16 03:37:06
Knoxville,35.960555600000006,-83.9208333,75.99,88.0,90.0,0.69,US,2020-09-16 03:37:02
Saryshagan,46.119167,73.619167,,,,,KZ,
Navalmoral De La Mata,39.891585,-5.540639,64.99,59.0,14.0,1.99,ES,2020-09-16 03:37:06
Qabis,33.881457,10.098196000000002,,,,,TN,
San Jose De Rio Tinto,14.933333300000001,-85.7,73.33,90.0,100.0,1.66,HN,2020-09-16 03:37:07
Kattivakkam,13.216667000000001,80.31666700000001,82.4,83.0,40.0,8.05,IN,2020-09-16 03:37:07
Santa Barbara,-20.9166667,-66.05,73.0,67.0,0.0,3.04,BO,2020-09-16 03:32:22
Datong,40.093610999999996,113.291389,60.49,31.0,0.0,19.57,CN,2020-09-16 03:37:07
Lompoc,34.639166700000004,-120.45694440000001,57.2,93.0,1.0,6.93,US,2020-09-16 03:34:49
Sao Joao Da Barra,-21.633333,-41.05,72.91,84.0,44.0,7.02,BR,2020-09-16 03:37:08
Springbok,-29.664336,17.886495,36.5,81.0,0.0,1.59,ZA,2020-09-16 03:37:08
Pavelets,53.788334,39.246006,43.0,84.0,0.0,1.01,RU,2020-09-16 03:37:08
Leh,34.166667,77.583333,53.42,40.0,0.0,5.26,IN,2020-09-16 03:37:08
Port Hedland,-20.312148999999998,118.61058799999999,95.0,30.0,25.0,10.29,AU,2020-09-16 03:37:08
Diapaga,12.070833300000002,1.7888889,73.56,91.0,100.0,7.45,BF,2020-09-16 03:37:09
Pyaozerskiy,65.766361,31.100852000000003,41.81,88.0,98.0,3.0,RU,2020-09-16 03:37:09
Tooele,40.5308333,-112.2975,73.0,29.0,1.0,6.93,US,2020-09-16 03:37:09
Limbang,4.75,115.0,77.0,88.0,75.0,6.93,MY,2020-09-16 03:37:09
Yunjinghong,21.991015,100.734086,,,,,CN,
Kingsville,27.515555600000003,-97.8558333,80.6,83.0,75.0,6.93,US,2020-09-16 03:37:10
Iwaki,37.05,140.883333,79.0,70.0,54.0,5.99,JP,2020-09-16 03:37:10
Santa Isabel,-23.3158,-46.2241,64.4,82.0,90.0,6.93,MX,2020-09-16 03:37:10
Ritchie,-29.038006,24.60278,42.8,38.0,24.0,1.12,ZA,2020-09-16 03:37:10
Henderson,37.836111100000004,-87.59,93.2,20.0,1.0,5.82,US,2020-09-16 03:37:10
Laguna,-28.483333000000002,-48.783333,77.0,36.0,1.0,3.36,BR,2020-09-16 03:37:11
Danilov,58.1908,40.171707,46.4,87.0,24.0,6.71,RU,2020-09-16 03:37:11
Resplendor,-19.333333,-41.25,68.31,87.0,28.0,3.31,BR,2020-09-16 03:37:11
Plouzane,48.383333,-4.616667,59.0,100.0,90.0,4.7,FR,2020-09-16 03:37:11
Puerto Carreno,6.189031,-67.485879,78.08,88.0,89.0,1.9,CO,2020-09-16 03:33:24
Huaihua,27.549444,109.959167,70.77,90.0,100.0,3.44,CN,2020-09-16 03:37:12
Seoni,31.243610999999998,77.123056,81.7,75.0,94.0,1.86,IN,2020-09-16 03:37:12
Kichera,55.9375,110.099722,54.34,59.0,53.0,5.17,RU,2020-09-16 03:37:12
Tarabuco,-19.1666667,-64.91666670000001,49.59,85.0,90.0,2.3,BO,2020-09-16 03:37:12
Cabo Rojo,18.0886111,-67.14611109999998,81.0,94.0,4.0,6.55,US,2020-09-16 03:37:12
Wolmaranstad,-27.197395,25.983106,,,,,ZA,
Sao Miguel Do Araguaia,-13.316667,-50.216667,75.67,36.0,0.0,3.98,BR,2020-09-16 03:37:13
Krasnousolskiy,53.8894,56.4746,,,,,RU,
Bushehr,28.9684,50.8385,82.4,65.0,20.0,6.82,IR,2020-09-16 03:37:13
Roswell,34.023055600000006,-84.3616667,69.8,73.0,1.0,5.82,US,2020-09-16 03:36:33
Myaundzha,63.049443999999994,147.185833,42.13,67.0,100.0,2.71,RU,2020-09-16 03:37:13
Guerrero,26.783333000000002,-99.333333,67.55,81.0,90.0,4.41,MX,2020-09-16 03:37:14
Riga,56.95,24.1,57.2,100.0,100.0,3.36,LV,2020-09-16 03:37:14
Ilhabela,-23.783333,-45.35,68.54,87.0,88.0,6.33,BR,2020-09-16 03:37:14
Portland,-38.352612,141.605743,69.01,72.0,90.0,3.2,AU,2020-09-16 03:29:12
Prince Rupert,54.316667,-130.333333,57.2,76.0,1.0,2.77,CA,2020-09-16 03:37:14
Dehloran,32.6941,47.2679,92.46,10.0,0.0,6.78,IR,2020-09-16 03:37:15
Gasa,27.9166667,89.6833333,78.01,78.0,40.0,3.36,BT,2020-09-16 03:37:15
Varjota,-4.133333,-40.5,69.49,79.0,0.0,1.92,BR,2020-09-16 03:37:15
Itaperucu,-25.2,-49.366667,55.0,99.0,83.0,4.0,BR,2020-09-16 03:37:15
Cayenne,4.9333333,-52.3333333,77.0,100.0,97.0,3.36,GF,2020-09-16 03:37:16
Sisimiut,66.9333333,-53.6833333,38.93,91.0,100.0,10.18,GL,2020-09-16 03:37:16
Jiazi,22.877914,116.067054,85.95,77.0,49.0,13.35,CN,2020-09-16 03:37:16
Dzerzhinsk,53.685,27.141944399999996,46.4,93.0,75.0,8.95,BY,2020-09-16 03:37:16
Requena,39.483333,-1.1,61.0,83.0,15.0,2.19,PE,2020-09-16 03:37:16
Swan Hill,-35.3386,143.559525,75.13,30.0,73.0,10.71,AU,2020-09-16 03:32:49
Indapur,18.3,73.25,81.12,83.0,100.0,2.01,IN,2020-09-16 03:37:17
Paramonga,-10.666666699999999,-77.83333329999999,60.28,84.0,75.0,7.58,PE,2020-09-16 03:37:17
Mergui,12.433333300000001,98.6,,,,,MM,
Mutata,7.244074,-76.435645,74.73,84.0,100.0,1.36,CO,2020-09-16 03:37:17
Dubbo,-32.24295,148.604843,77.0,41.0,0.0,16.11,AU,2020-09-16 03:37:17
Lodja,-3.483333,23.433332999999998,68.27,96.0,33.0,1.97,CD,2020-09-16 03:37:18
Zhanaozen,43.3,52.8,66.09,59.0,37.0,19.17,KZ,2020-09-16 03:37:18
San Juan,-31.5375,-68.536389,62.65,30.0,32.0,8.46,AR,2020-09-16 03:35:47
Lokosovo,61.13333299999999,74.81666700000001,54.41,70.0,0.0,16.58,RU,2020-09-16 03:37:18
Lokoja,7.802359,6.743005,72.97,93.0,99.0,3.74,NG,2020-09-16 03:37:18
Alekseyevskoye,55.307064000000004,50.113532,46.4,81.0,75.0,15.66,RU,2020-09-16 03:37:19
Aporawan,9.5994,118.3489,,,,,PH,
Hirna,9.216667,41.1,59.11,84.0,89.0,6.6,ET,2020-09-16 03:37:19
Cairns,-16.92304,145.766251,82.99,61.0,40.0,18.34,AU,2020-09-16 03:36:24
Estelle,29.845555600000004,-90.1066667,81.0,78.0,90.0,13.87,US,2020-09-16 03:33:01
Salisbury,46.033333,-65.05,60.8,93.0,2.0,6.93,US,2020-09-16 03:32:46
Shelburne,43.766667,-65.31666700000001,59.0,67.0,1.0,12.75,CA,2020-09-16 03:32:52
Otjimbingwe,-22.35,16.1333333,39.34,72.0,0.0,0.54,NA,2020-09-16 03:37:20
Havre-Saint-Pierre,50.25,-63.583332999999996,41.0,86.0,1.0,4.7,CA,2020-09-16 03:37:20
Mopipi,-21.1833333,24.8833333,64.96,26.0,42.0,9.1,BW,2020-09-16 03:37:20
Necochea,-38.547259000000004,-58.736753,51.01,68.0,82.0,1.99,AR,2020-09-16 03:37:20
Boa Vista,2.816667,-60.666667000000004,78.8,74.0,40.0,0.65,BR,2020-09-16 03:37:20
Karwar,14.813610999999998,74.129722,81.45,79.0,32.0,2.62,IN,2020-09-16 03:34:54
Dwarka,22.239444,68.96777800000001,84.06,73.0,100.0,10.04,IN,2020-09-16 03:37:21
Poum,-20.2333333,164.0166667,73.24,71.0,90.0,19.77,NC,2020-09-16 03:37:21
Zhireken,52.8249,117.3076,59.95,42.0,100.0,5.93,RU,2020-09-16 03:37:21
Sinjai,-5.1241,120.25299999999999,83.57,57.0,13.0,7.9,ID,2020-09-16 03:36:38
Amsterdam,52.35,4.9166669999999995,66.0,93.0,0.0,8.05,US,2020-09-16 03:37:22
Dunedin,-45.866667,170.5,54.03,60.0,48.0,19.6,NZ,2020-09-16 03:36:26
Keetmanshoop,-26.5833333,18.1333333,46.4,65.0,0.0,10.29,NA,2020-09-16 03:37:22
Saint Anthony,51.383333,-55.6,73.4,60.0,1.0,4.7,CA,2020-09-16 03:36:48
Ayni,39.3975,68.5405556,65.07,26.0,0.0,4.25,TJ,2020-09-16 03:37:22
Auki,-8.766666699999998,160.7,85.78,67.0,45.0,6.55,SB,2020-09-16 03:37:22
Metro,-5.113055999999999,105.30666699999999,86.81,58.0,61.0,8.32,ID,2020-09-16 03:37:23
Boshkengash,38.464722200000004,68.8036111,66.2,48.0,0.0,2.24,TJ,2020-09-16 03:37:23
Joshimath,30.566667,79.56666700000001,72.48,43.0,1.0,5.03,IN,2020-09-16 03:37:23
Gizo,-8.1,156.85,83.12,76.0,87.0,6.24,SB,2020-09-16 03:37:23
Chalus,36.654996000000004,51.420396999999994,69.8,83.0,20.0,2.24,IR,2020-09-16 03:37:24
Vardo,70.366667,31.1,41.0,100.0,75.0,3.36,NO,2020-09-16 03:37:24
Thilogne,15.9666667,-13.6,,,,,SN,
Kaitangata,-46.275,169.85,53.01,63.0,92.0,15.01,NZ,2020-09-16 03:37:24
Denpasar,-8.65,115.21666699999999,82.4,88.0,40.0,3.36,ID,2020-09-16 03:36:07
Fasa,28.9383,53.6482,57.2,28.0,0.0,6.96,IR,2020-09-16 03:37:24
Coxim,-18.5,-54.75,76.3,25.0,0.0,4.0,BR,2020-09-16 03:37:25
Tema,5.616666700000001,-0.0166667,77.0,88.0,90.0,11.41,GH,2020-09-16 03:37:25
Praya,-8.705362,116.270357,78.51,84.0,37.0,7.29,ID,2020-09-16 03:37:25
Tarnogskiy Gorodok,60.499722,43.576111,43.88,90.0,100.0,9.78,RU,2020-09-16 03:37:25
Manado,1.4869999999999999,124.8455,82.4,61.0,40.0,9.17,ID,2020-09-16 03:37:07
Totma,59.973749,42.764865,44.17,89.0,100.0,9.64,RU,2020-09-16 03:37:26
Marmaris,36.855,28.274167,77.0,78.0,0.0,6.93,TR,2020-09-16 03:37:26
Okha,22.469444,69.060556,64.08,75.0,42.0,7.4,RU,2020-09-16 03:37:26
Sirjan,29.451999999999998,55.6814,67.24,22.0,0.0,9.69,IR,2020-09-16 03:37:26
Batagay-Alyta,67.800556,130.41138899999999,47.7,57.0,55.0,4.29,RU,2020-09-16 03:37:27
Seoul,37.5985,126.9783,77.0,69.0,90.0,6.85,KR,2020-09-16 03:37:27
Westpunt,12.366666699999998,-69.16666670000001,,,,,AN,
Sakaiminato,35.55,133.23333300000002,84.2,54.0,75.0,6.93,JP,2020-09-16 03:33:37
Sergeyevka,53.88,67.41583299999999,51.37,80.0,92.0,18.52,KZ,2020-09-16 03:37:27
Hovd,44.6666667,102.16666670000001,58.42,33.0,51.0,3.2,MN,2020-09-16 03:37:28
Erenhot,43.6475,111.97666699999999,56.1,48.0,23.0,22.03,CN,2020-09-16 03:37:28
Waipawa,-41.412222,175.515278,60.8,41.0,0.0,17.22,NZ,2020-09-16 03:37:28
Waddan,29.1666667,16.1333333,70.29,75.0,0.0,6.71,LY,2020-09-16 03:37:28
Butka,56.717881999999996,63.786609,50.88,96.0,100.0,6.2,RU,2020-09-16 03:37:28
Xam Nua,20.419722,104.04388900000001,80.01,78.0,50.0,1.79,LA,2020-09-16 03:37:29
Dongying,37.456389,118.485556,75.29,33.0,0.0,10.42,CN,2020-09-16 03:37:29
Tazovskiy,67.466667,78.7,53.28,71.0,39.0,13.91,RU,2020-09-16 03:37:29
Basco,20.448649,121.97017199999999,85.06,79.0,35.0,19.17,PH,2020-09-16 03:37:29
Whitehorse,60.716667,-135.05,55.4,37.0,75.0,11.41,CA,2020-09-16 03:36:54
Anadyr,64.75,177.48333300000002,51.8,66.0,75.0,11.18,RU,2020-09-16 03:37:30
Tsaratanana,-16.783333300000002,47.65,65.3,60.0,5.0,9.42,MG,2020-09-16 03:37:30
Kamina,-8.738611,24.990555999999998,69.48,78.0,62.0,2.48,CD,2020-09-16 03:37:30
Asfi,32.299392,-9.237181,69.46,83.0,99.0,11.16,MA,2020-09-16 03:37:30
Cururupu,-1.833333,-44.866667,75.2,90.0,7.0,4.47,BR,2020-09-16 03:37:30
Emerald,-23.522961,148.157837,82.4,37.0,40.0,12.75,AU,2020-09-16 03:37:31
Oistins,13.066666699999999,-59.533333299999995,82.4,78.0,20.0,11.41,BB,2020-09-16 03:37:31
Honningsvag,70.983333,25.983333,44.6,93.0,75.0,4.7,NO,2020-09-16 03:37:31
Yerbogachen,61.276667,108.010833,58.62,50.0,7.0,3.89,RU,2020-09-16 03:37:31
Shiyan,32.6475,110.778056,82.0,22.0,99.0,3.49,CN,2020-09-16 03:37:31
Quesnel,52.983332999999995,-122.483333,50.0,93.0,1.0,2.37,CA,2020-09-16 03:35:29
Christchurch,50.733333,-1.7666669999999998,63.0,33.0,26.0,27.51,NZ,2020-09-16 03:37:11
Kurilsk,45.233333,147.883333,63.88,73.0,88.0,13.13,RU,2020-09-16 03:37:32
Udachnyy,66.416667,112.4,53.6,54.0,0.0,2.24,RU,2020-09-16 03:37:32
Conde,-11.816667,-37.616667,73.4,94.0,6.0,5.82,BR,2020-09-16 03:34:02
Puerto Del Rosario,28.50038,-13.862719,73.4,88.0,100.0,16.11,ES,2020-09-16 03:37:33
Piacabucu,-10.4,-36.416667,73.8,83.0,16.0,11.48,BR,2020-09-16 03:37:33
Tigil,57.8,158.666667,50.14,89.0,96.0,6.6,RU,2020-09-16 03:37:33
Popondetta,-8.766666699999998,148.2333333,90.48,52.0,87.0,4.18,PG,2020-09-16 03:37:33
Sioux Lookout,50.1,-91.916667,53.6,81.0,90.0,2.24,CA,2020-09-16 03:37:33
Rach Gia,10.016667,105.08333300000001,84.2,83.0,40.0,11.41,VN,2020-09-16 03:37:34
Nisia Floresta,-6.066667,-35.133333,77.0,83.0,75.0,10.29,BR,2020-09-16 03:35:11
Eureka,40.8022222,-124.1625,66.99,93.0,90.0,2.19,US,2020-09-16 03:35:20
Paka,4.6374,103.4368,82.4,88.0,40.0,1.12,MY,2020-09-16 03:37:34
Ontario,34.0633333,-117.65,82.4,24.0,20.0,8.05,US,2020-09-16 03:37:34
Portalegre,39.297178,-7.4301509999999995,63.0,80.0,43.0,0.25,PT,2020-09-16 03:37:35
Sobolevo,54.29833299999999,155.96111100000002,54.16,96.0,73.0,1.52,RU,2020-09-16 03:37:35
Sterlibashevo,53.437548,55.257802000000005,44.94,87.0,99.0,14.2,RU,2020-09-16 03:37:35
Makung,23.5666667,119.56666670000001,,,,,TW,
Tacuarembo,-31.733333299999998,-55.9833333,48.25,93.0,38.0,3.02,UY,2020-09-16 03:37:35
General Jose Eduvigis Diaz,-27.166666999999997,-58.416667000000004,59.0,87.0,100.0,1.99,PY,2020-09-16 03:37:36
Warqla,31.9575,5.3277778,,,,,DZ,
Klaksvik,62.2333333,-6.6,41.0,100.0,0.0,1.12,FO,2020-09-16 03:37:36
Dubrovnik,42.650555600000004,18.0913889,75.2,44.0,98.0,6.93,HR,2020-09-16 03:37:36
Muros,42.776173,-9.060316,57.99,93.0,77.0,6.8,ES,2020-09-16 03:37:36
Nador,35.174040999999995,-2.92866,73.4,94.0,90.0,3.36,MA,2020-09-16 03:37:36
Nelidovo,56.221072,32.777378000000006,44.51,89.0,73.0,2.95,RU,2020-09-16 03:37:37
Izumo,35.366667,132.76666699999998,78.8,69.0,75.0,3.36,JP,2020-09-16 03:37:37
Teya,60.377778,92.626667,59.02,57.0,100.0,10.09,RU,2020-09-16 03:37:37
Puerto Pinasco,-22.716667,-57.833332999999996,,,,,PY,
Youghal,51.95,-7.8505556,61.0,93.0,75.0,4.7,IE,2020-09-16 03:37:37
Karamay,45.600376000000004,84.86014200000001,,,,,CN,
Bubaque,11.2833333,-15.833333300000001,79.84,85.0,99.0,9.37,GW,2020-09-16 03:37:38
Pozo Colorado,-23.466667,-58.966667,69.13,54.0,100.0,7.72,PY,2020-09-16 03:37:38
Coahuayana,18.7,-103.658333,78.15,87.0,100.0,2.37,MX,2020-09-16 03:37:38
Ganzhou,25.85,114.933333,73.38,93.0,100.0,3.98,CN,2020-09-16 03:37:38
Stornoway,58.216667,-6.366667,53.6,76.0,11.0,11.41,GB,2020-09-16 03:37:39
Portobelo,9.55,-79.65,79.0,88.0,91.0,5.01,PA,2020-09-16 03:37:39
Yarmouth,43.833333,-66.116667,52.0,93.0,1.0,6.53,CA,2020-09-16 03:33:07
Bonanza,14.016666699999998,-84.58333329999999,73.65,96.0,95.0,1.21,NI,2020-09-16 03:37:39
Olonets,60.984745999999994,32.969759,44.15,87.0,95.0,3.91,RU,2020-09-16 03:37:39
Griffith,-34.288528,146.050934,60.8,82.0,1.0,4.7,AU,2020-09-16 03:37:40
Trinidad,-14.833333300000001,-64.9,76.23,53.0,4.0,4.07,BO,2020-09-16 03:37:40
Mandiana,10.633333300000002,-8.683333300000001,73.38,91.0,67.0,2.24,GN,2020-09-16 03:37:40
Port-Gentil,-0.7166667,8.7833333,74.97,87.0,27.0,13.78,GA,2020-09-16 03:37:40
San Angelo,31.463611100000005,-100.4366667,73.0,73.0,1.0,4.7,US,2020-09-16 03:36:58
Gorontalo,0.5412,123.0595,87.98,51.0,33.0,7.83,ID,2020-09-16 03:33:02
Linxia,35.600278,103.206389,60.46,49.0,99.0,3.58,CN,2020-09-16 03:37:41
Ambilobe,-13.2,49.05,70.41,68.0,1.0,4.94,MG,2020-09-16 03:37:41
Puerto Leguizamo,-0.193368,-74.781886,73.18,90.0,91.0,0.58,CO,2020-09-16 03:37:41
Mwinilunga,-11.733333300000002,24.4333333,60.31,70.0,13.0,2.91,ZM,2020-09-16 03:34:08
Puerto Armuelles,8.2833333,-82.8666667,78.01,86.0,100.0,1.01,PA,2020-09-16 03:37:42
Mrirt,33.169833000000004,-5.567073000000001,,,,,MA,
Genhe,50.783333,121.516667,53.04,81.0,100.0,11.21,CN,2020-09-16 03:37:42
Mareeba,-16.995001000000002,145.423233,82.99,64.0,19.0,5.01,AU,2020-09-16 03:37:42
Ojinaga,29.566667,-104.416667,75.2,73.0,1.0,4.85,MX,2020-09-16 03:37:42
Xucheng,20.350001000000002,110.128837,89.6,62.0,40.0,2.24,CN,2020-09-16 03:37:42
Bairiki,1.3166666999999999,172.9666667,87.8,66.0,40.0,14.99,KI,2020-09-16 03:37:43
Taunggyi,20.783333300000002,97.0333333,71.22,91.0,95.0,2.8,MM,2020-09-16 03:37:43
Banna,17.9809,120.6569,89.6,66.0,75.0,4.7,PH,2020-09-16 03:37:43
Rolim De Moura,-13.083333,-62.266667000000005,,,,,BR,
Manzanillo,20.3433333,-77.1166667,76.46,91.0,17.0,8.72,MX,2020-09-16 03:37:43
Nuevo Laredo,27.5,-99.516667,78.8,83.0,1.0,4.45,MX,2020-09-16 03:35:30
Suihua,46.640556,126.996944,57.94,91.0,100.0,17.65,CN,2020-09-16 03:37:44
Kirakira,-10.45,161.91666669999998,81.68,80.0,100.0,17.4,SB,2020-09-16 03:37:44
Barreirinhas,-2.75,-42.833333,77.23,77.0,0.0,8.88,BR,2020-09-16 03:37:44
Karakendzha,39.2422222,71.5261111,,,,,TJ,
Kamenka,65.887591,44.112612,48.99,90.0,0.0,12.06,RU,2020-09-16 03:37:45
Southbridge,-43.816666999999995,172.25,48.99,95.0,20.0,5.35,NZ,2020-09-16 03:37:45
Watsa,3.05,29.533333000000002,62.1,100.0,94.0,1.43,CD,2020-09-16 03:37:45
Kazalinsk,45.762778000000004,62.1075,,,,,KZ,
Srikakulam,18.3,83.9,86.14,72.0,73.0,2.98,IN,2020-09-16 03:37:45
Tarko-Sale,64.9225,77.785,55.99,75.0,17.0,17.4,RU,2020-09-16 03:37:46
Tocopilla,-22.09198,-70.19792,60.17,60.0,17.0,4.41,CL,2020-09-16 03:37:46
Kangaatsiaq,68.3,-53.466666700000005,39.94,76.0,100.0,9.4,GL,2020-09-16 03:37:46
Broken Hill,-31.961729,141.459976,82.4,20.0,21.0,14.99,AU,2020-09-16 03:37:46
Presidencia Roque Saenz Pena,-26.785221000000003,-60.438761,53.85,92.0,76.0,4.5,AR,2020-09-16 03:37:46
Rawson,-43.300158,-65.10228000000001,44.64,59.0,37.0,7.67,AR,2020-09-16 03:37:47
Dzaoudzi,-12.779444400000001,45.2536111,75.2,83.0,75.0,6.93,YT,2020-09-16 03:37:47
Loandjili,-4.7561111,11.857777800000001,73.62,84.0,66.0,6.82,CG,2020-09-16 03:37:47
Reutte,47.483333,10.716667,57.99,91.0,94.0,1.01,AT,2020-09-16 03:37:47
Eldorado,-26.404840999999998,-54.624784,71.11,63.0,99.0,8.55,MX,2020-09-16 03:37:48
Guiratinga,-16.35,-53.75,74.37,32.0,0.0,2.42,BR,2020-09-16 03:37:48
Ibaiti,-23.8469,-50.1886,57.99,99.0,38.0,1.01,BR,2020-09-16 03:37:48
Baykit,61.67694399999999,96.37916700000001,60.82,52.0,40.0,8.16,RU,2020-09-16 03:37:48
Sudogda,55.953936,40.862914,45.09,88.0,1.0,9.08,RU,2020-09-16 03:37:48
Lima,-12.05,-77.05,60.8,82.0,90.0,8.05,PE,2020-09-16 03:34:25
Kabanjahe,3.1001,98.4908,77.29,53.0,100.0,5.41,ID,2020-09-16 03:37:49
Nishihara,26.184167000000002,127.75583300000001,89.6,66.0,75.0,9.17,JP,2020-09-16 03:37:49
Evensk,61.95,159.23333300000002,50.22,60.0,62.0,7.72,RU,2020-09-16 03:37:49
Mitsamiouli,-11.384722199999999,43.2844444,76.21,76.0,4.0,11.3,KM,2020-09-16 03:37:49
Yanam,16.733333,82.216667,82.4,83.0,90.0,4.61,IN,2020-09-16 03:37:50
Hokitika,-42.716667,170.966667,53.31,82.0,100.0,21.56,NZ,2020-09-16 03:37:50
Lewistown,47.0625,-109.4275,48.2,100.0,1.0,1.48,US,2020-09-16 03:37:50
Leogane,18.5108333,-72.6338889,80.49,76.0,80.0,3.22,HT,2020-09-16 03:37:50
Daye,30.083333000000003,114.95,72.0,91.0,100.0,0.58,CN,2020-09-16 03:37:50
Kulotino,58.45,33.383333,43.81,87.0,77.0,2.26,RU,2020-09-16 03:37:51
Oswego,41.6827778,-88.3513889,51.8,76.0,1.0,3.36,US,2020-09-16 03:37:51
High Level,58.516667000000005,-117.13333300000001,39.2,79.0,20.0,2.24,CA,2020-09-16 03:37:28
Nassau,25.0833333,-77.35,63.0,76.0,1.0,5.84,BS,2020-09-16 03:37:51
Dehui,44.533333,125.7,69.8,68.0,75.0,17.9,CN,2020-09-16 03:37:51
Ketchikan,55.34222220000001,-131.6461111,60.8,59.0,1.0,3.36,US,2020-09-16 03:33:06
Ozernovskiy,51.5,156.51666699999998,53.58,73.0,65.0,6.6,RU,2020-09-16 03:37:52
Richards Bay,-28.775416999999997,32.054005,65.41,86.0,90.0,5.28,ZA,2020-09-16 03:37:52
Aswan,24.0875,32.898888899999996,81.45,30.0,0.0,10.25,EG,2020-09-16 03:37:52
Colares,38.799215000000004,-9.44691,70.0,95.0,82.0,4.0,PT,2020-09-16 03:37:52
San Vicente,-34.982645,-58.376169,66.92,82.0,100.0,2.68,AR,2020-09-16 03:37:53
Diamantino,-14.416667000000002,-56.45,77.04,30.0,0.0,2.51,BR,2020-09-16 03:37:53
Lewisville,36.0969444,-80.4194444,81.0,65.0,40.0,4.7,US,2020-09-16 03:37:53
Saint-Denis,45.783333,-73.15,66.99,77.0,80.0,3.36,RE,2020-09-16 03:37:53
Loiza,18.4333333,-65.8805556,84.2,74.0,20.0,7.96,US,2020-09-16 03:37:54
Iracoubo,5.4833333,-53.216666700000005,75.69,89.0,96.0,3.49,GF,2020-09-16 03:37:54
Rohri,27.692233,68.895062,86.0,79.0,40.0,11.41,PK,2020-09-16 03:37:54
Khasan,42.422222,130.653056,64.78,90.0,100.0,13.15,RU,2020-09-16 03:37:54
Troitsko-Pechorsk,62.708358999999994,56.196426,45.72,94.0,85.0,8.84,RU,2020-09-16 03:37:54
Ruatoria,-37.883333,178.333333,,,,,NZ,
Lar,26.203889,83.97166700000001,85.98,76.0,21.0,7.94,IR,2020-09-16 03:37:55
Williamsport,41.241111100000005,-77.00138890000001,50.0,76.0,1.0,1.43,US,2020-09-16 03:37:49
Sonkovo,57.778163,37.157074,41.14,96.0,15.0,6.53,RU,2020-09-16 03:37:55
Chernyshevskiy,63.012778000000004,112.47138899999999,59.56,52.0,23.0,0.81,RU,2020-09-16 03:37:55
Zemio,5.0333333,25.1333333,67.37,97.0,100.0,1.48,CF,2020-09-16 03:37:56
Novoagansk,61.9449,76.6625,56.34,67.0,0.0,15.14,RU,2020-09-16 03:37:56
Ilinsko-Podomskoye,61.11444399999999,47.978611,,,,,RU,
Batamshinskiy,50.559444,58.274722,44.6,87.0,75.0,17.9,KZ,2020-09-16 03:37:56
Bolshoy Tsaryn,47.851944,45.424167,,,,,RU,
Komsomolskiy,69.166667,172.7,71.6,30.0,0.0,6.93,RU,2020-09-16 03:37:56
Miandrivazo,-19.5166667,45.466666700000005,76.24,67.0,87.0,0.16,MG,2020-09-16 03:37:57
Zhangzhou,24.513333,117.655556,91.4,63.0,40.0,4.47,CN,2020-09-16 03:37:57
Abha,18.216389000000003,42.505278000000004,66.2,59.0,43.0,5.95,SA,2020-09-16 03:37:57
Barra Do Corda,-5.5,-45.25,79.54,43.0,61.0,2.68,BR,2020-09-16 03:37:57
Vredendal,-31.668328999999996,18.501192,45.37,78.0,0.0,1.1,ZA,2020-09-16 03:37:58
Kashi,39.454722,75.979722,66.2,45.0,0.0,8.95,CN,2020-09-16 03:37:58
Stephenville,48.55,-58.566667,75.2,78.0,1.0,5.82,CA,2020-09-16 03:37:58
Bria,6.5333333,21.9833333,68.68,97.0,100.0,3.49,CF,2020-09-16 03:37:58
Shimanovsk,52.0,127.7,66.27,62.0,89.0,5.32,RU,2020-09-16 03:37:58
Praxedis Guerrero,31.366667,-106.016667,77.0,44.0,20.0,3.36,MX,2020-09-16 03:37:59
Umm Lajj,25.021264000000002,37.268502000000005,90.54,35.0,0.0,6.71,SA,2020-09-16 03:37:12
Oktyabrskoye,54.4123,62.7354,50.0,93.0,0.0,4.47,RU,2020-09-16 03:37:59
Digras,20.116667,77.716667,83.44,81.0,38.0,8.61,IN,2020-09-16 03:37:59
Yelovo,57.053810999999996,54.920704,47.16,88.0,100.0,16.2,RU,2020-09-16 03:37:59
Obihiro,42.917221999999995,143.204444,69.8,88.0,75.0,9.17,JP,2020-09-16 03:38:00
Madimba,-10.4,40.3333333,64.4,88.0,20.0,1.41,TZ,2020-09-16 03:38:00
Kichmengskiy Gorodok,59.981643999999996,45.785433000000005,45.61,85.0,100.0,9.1,RU,2020-09-16 03:38:00
Buraydah,26.325986,43.974965999999995,77.0,29.0,0.0,8.05,SA,2020-09-16 03:35:47
Tamasane,-22.3166667,27.366666700000003,71.6,49.0,0.0,5.82,BW,2020-09-16 03:38:00
Paris,43.2,-80.383333,68.0,82.0,82.0,5.82,US,2020-09-16 03:33:59
Tezu,27.916666999999997,96.166667,75.31,87.0,99.0,2.93,IN,2020-09-16 03:38:01
San Sebastian,1.838611,-76.771889,66.2,88.0,40.0,3.36,CO,2020-09-16 03:38:01
Flin Flon,54.766667000000005,-101.883333,32.47,91.0,70.0,15.35,CA,2020-09-16 03:38:01
Palauig,15.435,119.9045,85.91,68.0,99.0,2.98,PH,2020-09-16 03:38:01
Maple Creek,49.916667,-109.46666699999999,53.01,62.0,86.0,11.86,CA,2020-09-16 03:38:02
Rockhampton,-23.38032,150.505951,78.8,39.0,8.0,11.41,AU,2020-09-16 03:38:02
Lynn Haven,30.2452778,-85.6483333,75.2,100.0,90.0,20.8,US,2020-09-16 03:38:02
Linhares,-19.416667,-40.066666999999995,68.94,93.0,19.0,2.59,BR,2020-09-16 03:37:20
Camopi,3.1666667,-52.35,71.71,96.0,35.0,1.72,GF,2020-09-16 03:38:02
Santa Cruz Cabralia,-16.283333,-39.033333,75.2,78.0,40.0,6.93,BR,2020-09-16 03:38:03
Cockburn Town,24.033333300000002,-74.5166667,82.4,78.0,20.0,11.41,TC,2020-09-16 03:38:03
Igrim,63.1906,64.4162,51.48,84.0,100.0,10.65,RU,2020-09-16 03:38:03
Kloulklubed,7.039444400000001,134.2525,82.4,78.0,75.0,4.7,PW,2020-09-16 03:38:03
Morehead,-8.55,141.65,64.4,100.0,1.0,5.3,PG,2020-09-16 03:38:03
Palembang,-2.916667,104.75,84.2,74.0,20.0,2.24,ID,2020-09-16 03:33:51
Verkhniye Kigi,55.408333,58.604443999999994,45.82,87.0,100.0,17.07,RU,2020-09-16 03:38:04
Wau,-7.3333333,146.7166667,70.39,93.0,43.0,1.9,PG,2020-09-16 03:38:04
Quang Ngai,15.116667000000001,108.8,94.19,51.0,58.0,4.5,VN,2020-09-16 03:38:04
Otane,-39.883333,176.633333,55.0,63.0,0.0,15.99,NZ,2020-09-16 03:38:04
North Platte,41.1238889,-100.765,70.0,67.0,1.0,8.05,US,2020-09-16 03:38:05
Puerto Concordia,2.622059,-72.757242,72.01,95.0,70.0,2.1,CO,2020-09-16 03:38:05
Gambela,8.25,34.583333,69.94,92.0,97.0,6.17,ET,2020-09-16 03:38:05
Temaraia,-0.6666667,174.45,,,,,KI,
Ostrogozhsk,50.866398,39.075615,52.16,87.0,8.0,5.12,RU,2020-09-16 03:38:05
Hun,29.116666700000003,15.933333300000001,70.03,76.0,1.0,7.02,LY,2020-09-16 03:35:36
Vuktyl,63.856667,57.30944399999999,45.61,92.0,38.0,7.76,RU,2020-09-16 03:38:06
Nesna,66.2,13.033333,46.0,75.0,100.0,8.01,NO,2020-09-16 03:38:06
Barranca De Upia,4.569634,-72.966758,73.15,91.0,91.0,2.46,CO,2020-09-16 03:38:06
Paamiut,62.0,-49.75,45.68,73.0,100.0,27.04,GL,2020-09-16 03:36:30
San Rafael,-34.617717,-68.330066,61.32,29.0,78.0,8.84,AR,2020-09-16 03:38:07
Homer,59.6425,-151.5483333,57.2,71.0,90.0,9.17,US,2020-09-16 03:38:07
Dingtao,35.068333,115.5625,79.97,41.0,33.0,8.34,CN,2020-09-16 03:38:07
Tshikapa,-6.4166669999999995,20.8,72.0,87.0,59.0,0.29,CD,2020-09-16 03:38:08
Sinnamary,5.383333299999999,-52.95,76.95,87.0,94.0,4.05,GF,2020-09-16 03:38:08
Soc Trang,9.603333000000001,105.98,84.2,83.0,40.0,11.41,VN,2020-09-16 03:38:08
Kondinskoye,59.648056000000004,67.41,56.28,73.0,80.0,16.02,RU,2020-09-16 03:38:09
Qaqortoq,60.716666700000005,-46.033333299999995,44.6,75.0,100.0,3.36,GL,2020-09-16 03:38:09
Bartow,27.896111100000002,-81.8433333,78.01,94.0,90.0,4.05,US,2020-09-16 03:38:09
Sambava,-14.266666699999998,50.1666667,68.85,78.0,2.0,10.94,MG,2020-09-16 03:38:09
Trybukhivtsi,49.042506,25.450549,60.01,61.0,0.0,6.55,UA,2020-09-16 03:38:10
Moranbah,-21.998279999999998,148.034836,78.58,45.0,68.0,16.64,AU,2020-09-16 03:38:10
Bhairab Bazar,24.0666667,90.9666667,86.0,79.0,75.0,3.36,BD,2020-09-16 03:38:10
Vytegra,61.006364000000005,36.448111,44.44,92.0,72.0,0.85,RU,2020-09-16 03:38:10
Owensboro,37.7741667,-87.1133333,66.2,72.0,1.0,5.82,US,2020-09-16 03:38:02
Maldonado,-34.9,-54.95,50.0,87.0,95.0,3.36,UY,2020-09-16 03:38:11
Satitoa,-13.983333300000002,-171.3666667,,,,,WS,
Pundaguitan,6.361153,126.17778100000001,81.95,73.0,98.0,3.87,PH,2020-09-16 03:38:11
Olavarria,-36.892715,-60.322540000000004,48.0,61.0,6.0,6.44,AR,2020-09-16 03:38:11
Okhotsk,59.38333299999999,143.3,55.06,78.0,86.0,15.19,RU,2020-09-16 03:38:11
Aleksandrov Gay,50.147043,48.570368,53.24,60.0,0.0,17.34,RU,2020-09-16 03:38:12
Bar Harbor,44.3875,-68.2044444,54.0,87.0,90.0,3.83,US,2020-09-16 03:38:12
Bogorodskoye,57.046944999999994,41.013539,40.87,97.0,3.0,5.1,RU,2020-09-16 03:37:02
Kaihua,23.368701,104.279996,76.37,71.0,90.0,5.61,CN,2020-09-16 03:38:12
Chunhuhub,19.55,-88.68333299999999,76.35,98.0,100.0,1.86,MX,2020-09-16 03:38:12
Mugla,37.218066,28.366497,75.2,88.0,0.0,4.34,TR,2020-09-16 03:38:13
